{"version": 0.6, "generator": "Overpass API 0.7.62.8 e802775f", "osm3s": {"timestamp_osm_base": "2025-12-01T17:39:36Z", "copyright": "The data included in this document is from www.openstreetmap.org. The data is made available under ODbL."}, "elements": [{"type": "node", "id": 2858129055, "lat": 40.8362713, "lon": -73.8543663, "tags": {"addr:city": "Bronx", "addr:housenumber": "2119", "addr:postcode": "10462", "addr:state": "NY", "addr:street": "Starling Avenue", "amenity": "restaurant", "delivery": "no", "diet:halal": "yes", "diet:vegetarian": "yes", "name": "Lava Rock Kitchen", "opening_hours": "Tu-Th 14:00-22:00; Fr-Su 12:00-22:00", "phone": "+17187850048", "takeaway": "yes", "website": "https://www.lavarockkitchen.com/"}}, {"type": "node", "id": 2858136538, "lat": 40.8346924, "lon": -73.853479}, {"type": "node", "id": 2858136550, "lat": 40.834757, "lon": -73.8538193}, {"type": "node", "id": 2858136553, "lat": 40.8347636, "lon": -73.8537452}, {"type": "node", "id": 2858136556, "lat": 40.8347733, "lon": -73.8537467}, {"type": "node", "id": 2858136559, "lat": 40.834777, "lon": -73.8537045}, {"type": "node", "id": 2858136563, "lat": 40.8347893, "lon": -73.8536425}, {"type": "node", "id": 2858136564, "lat": 40.8347903, "lon": -73.8535861}, {"type": "node", "id": 2858136571, "lat": 40.834799, "lon": -73.8534971}, {"type": "node", "id": 2858136575, "lat": 40.8348344, "lon": -73.8538332}, {"type": "node", "id": 2858136577, "lat": 40.8348318, "lon": -73.8537526}, {"type": "node", "id": 2858136579, "lat": 40.834836, "lon": -73.8537158}, {"type": "node", "id": 2858136580, "lat": 40.8348401, "lon": -73.8537604}, {"type": "node", "id": 2858136584, "lat": 40.8348266, "lon": -73.8536489}, {"type": "node", "id": 2858136586, "lat": 40.8348322, "lon": -73.8535923}, {"type": "node", "id": 2858136588, "lat": 40.8348383, "lon": -73.8535933}, {"type": "node", "id": 2858136592, "lat": 40.8348465, "lon": -73.8535094}, {"type": "node", "id": 2858136600, "lat": 40.8348752, "lon": -73.8534629}, {"type": "node", "id": 2858136630, "lat": 40.8349484, "lon": -73.8535267}, {"type": "node", "id": 2858136642, "lat": 40.8349766, "lon": -73.8534773}, {"type": "node", "id": 4867572033, "lat": 40.8320122, "lon": -73.8551996}, {"type": "node", "id": 4867572034, "lat": 40.8317294, "lon": -73.8542775}, {"type": "node", "id": 4867582809, "lat": 40.8321377, "lon": -73.8543273}, {"type": "node", "id": 4867582811, "lat": 40.831724, "lon": -73.8542363}, {"type": "node", "id": 5197668411, "lat": 40.8340109, "lon": -73.8520735, "tags": {"addr:housenumber": "2166", "addr:postcode": "10462", "addr:street": "Westchester Avenue", "amenity": "cafe", "name": "Caff\u00e9 Lanka"}}, {"type": "node", "id": 5552553580, "lat": 40.8330427, "lon": -73.8515139, "tags": {"addr:housenumber": "1247", "addr:street": "Castle Hill Avenue", "amenity": "restaurant", "cuisine": "cuban", "name": "Havana Cafe"}}, {"type": "node", "id": 5795242414, "lat": 40.8339078, "lon": -73.8525716, "tags": {"addr:city": "Bronx", "addr:housenumber": "2152", "addr:postcode": "10462", "addr:state": "NY", "addr:street": "Westchester Avenue", "addr:unit": "B", "fax": "+1-718-823-7538", "name": "Mayjay Property Management", "office": "company", "opening_hours": "Mo-Fr 08:00-19:00; Sa 08:00-18:00", "payment:american_express": "yes", "payment:cash": "yes", "payment:cheque": "yes", "payment:discover_card": "yes", "payment:mastercard": "yes", "payment:visa": "yes", "phone": "+1-718-823-7535", "start_date": "2007", "website": "http://mayjayproperty.com"}}, {"type": "node", "id": 6418632195, "lat": 40.8346975, "lon": -73.853425}, {"type": "node", "id": 6418632196, "lat": 40.8349796, "lon": -73.8535347}, {"type": "node", "id": 6814479070, "lat": 40.8321326, "lon": -73.8543645}, {"type": "node", "id": 6814479072, "lat": 40.8318441, "lon": -73.8546443}, {"type": "node", "id": 9283606288, "lat": 40.8344526, "lon": -73.8536889, "tags": {"addr:city": "Bronx", "addr:housenumber": "1306", "addr:postcode": "10462", "addr:state": "NY", "addr:street": "Unionport Road", "amenity": "bar", "name": "Evo Lounge", "name:en": "Evo Cocktail Lounge & Restaurant", "opening_hours": "Su-Th 16:00-00:00; Fr-Sa 16:00-03:00"}}, {"type": "node", "id": 10566621247, "lat": 40.8320254, "lon": -73.8551923}, {"type": "node", "id": 11890730745, "lat": 40.8342714, "lon": -73.8526297, "tags": {"addr:city": "Bronx", "addr:housenumber": "2153", "addr:postcode": "10462", "addr:state": "NY", "addr:street": "Westchester Avenue", "addr:unit": "200", "description": "Ahad&Co CPA is a New York City-based tax accountant and CPA firm.", "email": "ysarwar@ahadandco.com", "name": "Ahad&Co CPA", "office": "tax_advisor", "opening_hours": "Mo-Fr 10:00-18:00; Sa 10:00-16:00", "phone": "+1-929-371-9915", "website": "https://ahadandco.com/"}}, {"type": "way", "id": 494978182, "nodes": [4867582809, 6814479070, 10566621247, 4867572033, 6814479072, 4867572034, 4867582811, 4867582809], "tags": {"ele": "11", "gnis:feature_id": "2370269", "leisure": "park", "name": "Chief Dennis L. Devlin Park", "operator": "New York City Department of Parks and Recreation", "operator:short": "NYC Parks", "operator:type": "public", "operator:wikidata": "Q1894232", "website": "https://www.nycgovparks.org/parks/chief-dennis-l-devlin-park", "wikidata": "Q49535548"}}, {"type": "way", "id": 667593487, "nodes": [2858136575, 2858136580, 2858136577, 2858136579, 2858136559, 2858136556, 2858136553, 2858136550, 2858136575], "tags": {"access": "yes", "description": "Small garden made for decoration.", "garden:type": "community", "leisure": "park", "lit": "yes", "operator": "Super of 1320 odell"}}, {"type": "way", "id": 685022240, "nodes": [2858136630, 2858136592, 2858136588, 2858136586, 2858136584, 2858136563, 2858136564, 2858136571, 2858136538, 6418632195, 2858136600, 2858136642, 6418632196, 2858136630], "tags": {"access": "private", "covered": "yes", "garden:type": "community", "landuse": "greenfield", "leisure": "park", "lit": "yes", "operator": "super of 1320 odell & residence", "sport": "soccer;basketball;multi"}}]}