{"version": 0.6, "generator": "Overpass API 0.7.62.8 e802775f", "osm3s": {"timestamp_osm_base": "2025-12-01T17:07:57Z", "copyright": "The data included in this document is from www.openstreetmap.org. The data is made available under ODbL."}, "elements": [{"type": "node", "id": 357561857, "lat": 40.8103786, "lon": -73.9076366, "tags": {"amenity": "school", "ele": "9", "gnis:feature_id": "951306", "name": "Gompers Vocational High School"}}, {"type": "node", "id": 357579872, "lat": 40.8127196, "lon": -73.905763, "tags": {"amenity": "school", "ele": "11", "gnis:feature_id": "961576", "name": "Public School 25"}}, {"type": "node", "id": 357609113, "lat": 40.8145452, "lon": -73.9048587, "tags": {"amenity": "school", "ele": "13", "gnis:feature_id": "2062006", "name": "Public School 161"}}, {"type": "node", "id": 357635076, "lat": 40.8136111, "lon": -73.9055556, "tags": {"ele": "12", "gnis:feature_id": "2374723", "leisure": "park", "name": "Fountain of Youth Playground", "wikidata": "Q34831057"}}, {"type": "node", "id": 4627623773, "lat": 40.813438, "lon": -73.9051986}, {"type": "node", "id": 4627623774, "lat": 40.8135071, "lon": -73.905546}, {"type": "node", "id": 4627623775, "lat": 40.8138378, "lon": -73.9054263}, {"type": "node", "id": 4627623776, "lat": 40.8138081, "lon": -73.9052618}, {"type": "node", "id": 4627623777, "lat": 40.8140325, "lon": -73.905181}, {"type": "node", "id": 4627623778, "lat": 40.8139959, "lon": -73.9050016}, {"type": "node", "id": 5859955160, "lat": 40.8127411, "lon": -73.9074547, "tags": {"addr:housenumber": "772", "addr:street": "East 149th Street", "amenity": "restaurant", "cuisine": "italian", "name": "The Original Venice Restaurant", "phone": "+1-718-585-5164"}}, {"type": "node", "id": 8575187633, "lat": 40.8109455, "lon": -73.9029379}, {"type": "node", "id": 8575187638, "lat": 40.8108892, "lon": -73.9031114}, {"type": "node", "id": 8575187639, "lat": 40.8111056, "lon": -73.9031492}, {"type": "node", "id": 8600764366, "lat": 40.8156586, "lon": -73.9009806}, {"type": "node", "id": 8600764367, "lat": 40.815334, "lon": -73.9008078}, {"type": "node", "id": 8600764368, "lat": 40.8150986, "lon": -73.9016148}, {"type": "node", "id": 8600764369, "lat": 40.8148032, "lon": -73.9014664}, {"type": "node", "id": 8600764370, "lat": 40.8146156, "lon": -73.9021352}, {"type": "node", "id": 8600764371, "lat": 40.8152571, "lon": -73.9024706}, {"type": "way", "id": 468199096, "nodes": [4627623773, 4627623774, 4627623775, 4627623776, 4627623777, 4627623778, 4627623773], "tags": {"leisure": "park", "name": "Fountain of Youth"}}, {"type": "way", "id": 923781366, "nodes": [8575187639, 8575187633, 8575187638, 8575187639], "tags": {"ele": "10", "gnis:feature_id": "2374722", "leisure": "park", "name": "Martin Luther King Triangle", "name:etymology:wikidata": "Q8027", "wikidata": "Q34846845"}}, {"type": "way", "id": 926926230, "nodes": [8600764366, 8600764367, 8600764368, 8600764369, 8600764370, 8600764371, 8600764366], "tags": {"ele": "18", "gnis:feature_id": "2374724", "leisure": "park", "name": "Al Qui\u00f1ones Playground"}}]}