{"version": 0.6, "generator": "Overpass API 0.7.62.8 e802775f", "osm3s": {"timestamp_osm_base": "2025-12-01T16:27:00Z", "copyright": "The data included in this document is from www.openstreetmap.org. The data is made available under ODbL."}, "elements": [{"type": "node", "id": 357618078, "lat": 40.7514099, "lon": -73.9368787, "tags": {"amenity": "school", "ele": "10", "gnis:feature_id": "2080357", "mascot": "Eagles", "name": "Academy of American Studies", "wikidata": "Q4671418", "wikipedia": "en:Academy of American Studies"}}, {"type": "node", "id": 357618145, "lat": 40.7517275, "lon": -73.936783, "tags": {"amenity": "school", "ele": "10", "gnis:feature_id": "2080379", "name": "Newcomers School", "wikidata": "Q7017651", "wikipedia": "en:Newcomers High School"}}, {"type": "node", "id": 1575010807, "lat": 40.7498079, "lon": -73.9377727}, {"type": "node", "id": 1575010808, "lat": 40.7495541, "lon": -73.9372781}, {"type": "node", "id": 1575010811, "lat": 40.7508354, "lon": -73.9403974}, {"type": "node", "id": 1575010812, "lat": 40.7508869, "lon": -73.9402326}, {"type": "node", "id": 1575010815, "lat": 40.7496744, "lon": -73.9363685}, {"type": "node", "id": 1575010816, "lat": 40.7499427, "lon": -73.9368323}, {"type": "node", "id": 1575010817, "lat": 40.7501881, "lon": -73.938612}, {"type": "node", "id": 1575010818, "lat": 40.7494743, "lon": -73.9367522}, {"type": "node", "id": 1575010821, "lat": 40.7497269, "lon": -73.9363748}, {"type": "node", "id": 1575010823, "lat": 40.749744, "lon": -73.9373851}, {"type": "node", "id": 2087152337, "lat": 40.7496925, "lon": -73.9376332}, {"type": "node", "id": 2087152338, "lat": 40.7497764, "lon": -73.9376242}, {"type": "node", "id": 2087152341, "lat": 40.7498679, "lon": -73.9380457}, {"type": "node", "id": 2469076040, "lat": 40.7496243, "lon": -73.9374762}, {"type": "node", "id": 2469076041, "lat": 40.7495093, "lon": -73.9369951}, {"type": "node", "id": 2853050511, "lat": 40.7499146, "lon": -73.9394756, "tags": {"addr:city": "Long Island City", "addr:housenumber": "27-14", "addr:postcode": "11101", "addr:state": "NY", "addr:street": "Queens Plaza South", "amenity": "restaurant", "name": "Panda Express", "opening_hours": "Mo-Su 10:00-21:30"}}, {"type": "node", "id": 2853052239, "lat": 40.747769, "lon": -73.9418619}, {"type": "node", "id": 2853052260, "lat": 40.7478395, "lon": -73.941667}, {"type": "node", "id": 2853052268, "lat": 40.7478638, "lon": -73.9415999}, {"type": "node", "id": 2853052493, "lat": 40.7482926, "lon": -73.9423224}, {"type": "node", "id": 2853052608, "lat": 40.7483399, "lon": -73.942253}, {"type": "node", "id": 2853052612, "lat": 40.7483621, "lon": -73.9424557}, {"type": "node", "id": 2853052621, "lat": 40.748402, "lon": -73.9422911}, {"type": "node", "id": 2853052653, "lat": 40.7484866, "lon": -73.9423431}, {"type": "node", "id": 2853053029, "lat": 40.7489222, "lon": -73.9405833}, {"type": "node", "id": 2853053041, "lat": 40.748961, "lon": -73.9405475}, {"type": "node", "id": 2853053059, "lat": 40.7490223, "lon": -73.9407709}, {"type": "node", "id": 2853053069, "lat": 40.7490611, "lon": -73.9407351}, {"type": "node", "id": 2853053096, "lat": 40.74913, "lon": -73.9389902}, {"type": "node", "id": 2853053099, "lat": 40.7491379, "lon": -73.9389099}, {"type": "node", "id": 2853053100, "lat": 40.749138, "lon": -73.9390873}, {"type": "node", "id": 2853053211, "lat": 40.7491764, "lon": -73.9388191}, {"type": "node", "id": 2853053229, "lat": 40.7492342, "lon": -73.9387431}, {"type": "node", "id": 2963821764, "lat": 40.7495105, "lon": -73.9365836}, {"type": "node", "id": 2963821765, "lat": 40.7494762, "lon": -73.9366717}, {"type": "node", "id": 2963821766, "lat": 40.7497431, "lon": -73.9377601}, {"type": "node", "id": 2963821769, "lat": 40.749745, "lon": -73.9375273}, {"type": "node", "id": 2963821770, "lat": 40.7497345, "lon": -73.9374556}, {"type": "node", "id": 3753152802, "lat": 40.7486813, "lon": -73.9411152}, {"type": "node", "id": 3753152803, "lat": 40.748599, "lon": -73.9409556}, {"type": "node", "id": 3753152805, "lat": 40.7479279, "lon": -73.942681}, {"type": "node", "id": 3753152806, "lat": 40.7479742, "lon": -73.9428694}, {"type": "node", "id": 3753152810, "lat": 40.7477988, "lon": -73.9430354}, {"type": "node", "id": 3753152813, "lat": 40.7479216, "lon": -73.9416386}, {"type": "node", "id": 3753152822, "lat": 40.7483858, "lon": -73.9414216}, {"type": "node", "id": 4995839489, "lat": 40.7482529, "lon": -73.9397792, "tags": {"name": "Queens Adult Learning Center", "office": "educational_institution"}}, {"type": "node", "id": 4995839498, "lat": 40.748908, "lon": -73.9408313, "tags": {"addr:housenumber": "42-51", "addr:postcode": "11101", "addr:street": "27th Street", "amenity": "bar", "cocktails": "yes", "cuisine": "gastropub", "drink:beer": "draught; bottled", "drink:wine": "served", "email": "info@thebeaatnextdoor.com", "happy_hours": "Tu-Fr 16:00-19:00", "name": "The Beast Next Door Cafe & Bar", "phone": "+1 718-255-1612", "reservation": "yes", "website": "https://www.thebeastnextdoor.com"}}, {"type": "node", "id": 4995839500, "lat": 40.7492817, "lon": -73.9404951, "tags": {"addr:city": "Long Island City", "addr:housenumber": "4237", "addr:postcode": "11101", "addr:state": "NY", "addr:street": "27th Street", "amenity": "restaurant", "name": "Cyan Izakaya", "opening_hours": "closed"}}, {"type": "node", "id": 5134065491, "lat": 40.750003, "lon": -73.9396844, "tags": {"addr:city": "Long Island City", "addr:housenumber": "27-08", "addr:postcode": "11101", "addr:state": "NY", "addr:street": "Queens Plaza South", "amenity": "bar", "name": "First Stop", "phone": "+1 347-612-4754"}}, {"type": "node", "id": 5346072195, "lat": 40.7518234, "lon": -73.9397888, "tags": {"addr:housenumber": "41-18", "addr:street": "Crescent Street", "brand": "H&R Block", "brand:wikidata": "Q5627799", "name": "H&R Block", "office": "tax_advisor", "phone": "+1-718-707-0295", "website": "https://www.hrblock.com/"}}, {"type": "node", "id": 5906445987, "lat": 40.7507016, "lon": -73.9389745, "tags": {"name": "MetLife", "office": "company"}}, {"type": "node", "id": 5906445988, "lat": 40.7506498, "lon": -73.9388368, "tags": {"name": "JetBlue - Long Island City Support Center", "office": "company"}}, {"type": "node", "id": 5906764089, "lat": 40.751312, "lon": -73.9401037, "tags": {"amenity": "cafe"}}, {"type": "node", "id": 5978556751, "lat": 40.7520777, "lon": -73.9405389, "tags": {"addr:housenumber": "41-26", "addr:street": "Crescent Street", "amenity": "bar", "name": "The Baroness"}}, {"type": "node", "id": 6418607492, "lat": 40.7494601, "lon": -73.9395756, "tags": {"amenity": "restaurant", "name": "Massa's Coal Fired Pizzeria and Bar"}}, {"type": "node", "id": 6515526277, "lat": 40.7505331, "lon": -73.9369672, "tags": {"addr:unit": "#13", "name": "Susten Engery", "office": "energy_supplier"}}, {"type": "node", "id": 6515526278, "lat": 40.7505189, "lon": -73.9370139, "tags": {"internet_access": "yes", "name": "Green Desk", "office": "coworking"}}, {"type": "node", "id": 6515577609, "lat": 40.7506886, "lon": -73.9372412, "tags": {"name": "Tractel Inc.", "office": "yes"}}, {"type": "node", "id": 6515577610, "lat": 40.7505322, "lon": -73.9368946, "tags": {"name": "MOVE Systems Inc.", "office": "yes"}}, {"type": "node", "id": 6575834822, "lat": 40.7489242, "lon": -73.9394254}, {"type": "node", "id": 6575834824, "lat": 40.7489151, "lon": -73.9382729}, {"type": "node", "id": 6575834826, "lat": 40.7487793, "lon": -73.9381883}, {"type": "node", "id": 6575834827, "lat": 40.7489338, "lon": -73.9389658}, {"type": "node", "id": 6575834830, "lat": 40.7491351, "lon": -73.9384081}, {"type": "node", "id": 6575834831, "lat": 40.7493504, "lon": -73.9382591}, {"type": "node", "id": 6575834832, "lat": 40.7490872, "lon": -73.938542}, {"type": "node", "id": 6575834833, "lat": 40.7488678, "lon": -73.9384053}, {"type": "node", "id": 6575834834, "lat": 40.7488821, "lon": -73.9391109}, {"type": "node", "id": 6575834835, "lat": 40.748713, "lon": -73.9388288}, {"type": "node", "id": 6575834836, "lat": 40.7494672, "lon": -73.9385374}, {"type": "node", "id": 6575834837, "lat": 40.7485265, "lon": -73.9388762}, {"type": "node", "id": 6575834838, "lat": 40.7490083, "lon": -73.9391892}, {"type": "node", "id": 6575834839, "lat": 40.7486654, "lon": -73.9389624}, {"type": "node", "id": 6575834841, "lat": 40.7490188, "lon": -73.9394904}, {"type": "node", "id": 6575834842, "lat": 40.7492676, "lon": -73.9384906}, {"type": "node", "id": 6575834843, "lat": 40.7491931, "lon": -73.9393353}, {"type": "node", "id": 6689828325, "lat": 40.7526572, "lon": -73.9396832, "tags": {"addr:housenumber": "24-03", "addr:street": "41st Street", "amenity": "bar", "name": "The Huntress"}}, {"type": "node", "id": 6744695372, "lat": 40.7502199, "lon": -73.9401895, "tags": {"addr:city": "Long Island City", "addr:housenumber": "25-14", "addr:postcode": "11101", "addr:state": "NY", "addr:street": "Queens Plaza South", "amenity": "cafe", "branch": "Queens Plaza South & 27th St", "brand": "Starbucks", "brand:wikidata": "Q37158", "cuisine": "coffee_shop", "name": "Starbucks", "official_name": "Starbucks Coffee", "opening_hours": "Mo-Fr 05:30-19:00; Sa-Su 06:00-18:30", "phone": "+1 718-433-4844", "takeaway": "yes", "toilets": "yes", "website": "https://www.starbucks.com/store-locator/store/1025411/queens-plaza-s-27th-st-25-14-queens-plaza-south-long-island-city-ny-11101"}}, {"type": "node", "id": 6779393517, "lat": 40.749458, "lon": -73.9391275, "tags": {"addr:city": "Long Island City", "addr:housenumber": "42-09", "addr:postcode": "11101", "addr:state": "NY", "addr:street": "28th Street", "name": "NYC Dept of Health & Mental Hygene", "office": "government"}}, {"type": "node", "id": 6779861449, "lat": 40.7499601, "lon": -73.9396159, "tags": {"addr:housenumber": "27-10", "amenity": "restaurant", "cuisine": "pizza", "name": "Lucky Pizzeria & Cafe"}}, {"type": "node", "id": 8953971445, "lat": 40.7497381, "lon": -73.9415598, "tags": {"amenity": "restaurant", "cuisine": "sushi"}}, {"type": "node", "id": 8953971449, "lat": 40.7484928, "lon": -73.9390719, "tags": {"addr:housenumber": "28-03", "addr:postcode": "11101", "addr:street": "Jackson Avenue", "amenity": "restaurant", "cocktails": "yes", "contact:email": "redsorghumnyc@gmail.com", "contact:instagram": "redsorghumlic", "cuisine": "szechuan; hunan; chinese", "level": "0", "name": "Red Sorghum \u591c\u5bb4", "opening_hours": "Mo-Su 11:30-22:00", "phone": "+1 929-545-2023", "reservation": "yes", "reservation:website": "https://resy.com/cities/ny/red-sorghum", "website": "https://www.redsorghumlic.com/"}}, {"type": "node", "id": 8953971450, "lat": 40.7483015, "lon": -73.9386495, "tags": {"addr:housenumber": "28-10", "addr:street": "Jackson Avenue", "amenity": "cafe", "name": "Sweet Leaf Coffee Roasters", "outdoor_seating": "yes"}}, {"type": "node", "id": 8953971452, "lat": 40.7498284, "lon": -73.9414818, "tags": {"amenity": "cafe", "name": "M\u00f6ge tee"}}, {"type": "node", "id": 8986369406, "lat": 40.7498308, "lon": -73.9378377}, {"type": "node", "id": 9395735791, "lat": 40.7478295, "lon": -73.9418996}, {"type": "node", "id": 10234375751, "lat": 40.7501006, "lon": -73.9412375, "tags": {"addr:city": "Long Island City", "addr:housenumber": "42-22", "addr:postcode": "11101", "addr:state": "NY", "addr:street": "Crescent Street", "amenity": "restaurant", "branch": "Long Island City", "contact:instagram": "https://www.instagram.com/dalongyiusa/", "cuisine": "chinese;hotpot;asian", "email": "Service@Dalongyinyc.com", "name": "Da Long Yi Hot Pot", "opening_hours": "Mo-Th 12:00-21:00; Fr 12:00-21:30; Sa-Su 12:00-22:30", "phone": "+1-347-813-4569", "reservation": "yes", "toilets": "yes", "website": "https://www.dalongyinyc.com/"}}, {"type": "node", "id": 10234443658, "lat": 40.7503456, "lon": -73.9404398, "tags": {"addr:housenumber": "25-08", "addr:street": "Queens Plaza South", "amenity": "cafe", "brand": "Gong Cha", "brand:wikidata": "Q5581670", "brand:zh": "\u8ca2\u8336", "cuisine": "bubble_tea", "int_name": "Gong Cha", "name": "Gong Cha", "name:zh": "\u8ca2\u8336", "opening_hours": "Mo-Th, Su 11:00-22:30; Fr, Sa 11:00-23:00", "takeaway": "yes"}}, {"type": "node", "id": 10696152099, "lat": 40.7479995, "lon": -73.9404392, "tags": {"addr:city": "Long Island City", "addr:housenumber": "27-23", "addr:postcode": "11101", "addr:state": "NY", "addr:street": "Jackson Avenue", "amenity": "restaurant", "cuisine": "chinese;noodles", "internet_access": "yes", "name": "Dun Huang", "opening_hours": "Mo-Su 23:30-21:30", "phone": "+1-347-396-5873", "takeaway": "yes"}}, {"type": "node", "id": 10703267650, "lat": 40.7479155, "lon": -73.9422563, "tags": {"addr:city": "Long Island City", "addr:housenumber": "43-21", "addr:postcode": "11101", "addr:state": "NY", "addr:street": "Hunter Street", "amenity": "cafe", "branch": "Long Island City", "cuisine": "bubble_tea", "name": "Teazzi Tea Shop", "opening_hours": "Mo-Su 11:00-22:00", "outdoor_seating": "no", "phone": "+1-347-554-2680", "website": "https://teazzi.com/"}}, {"type": "node", "id": 10742589881, "lat": 40.7495206, "lon": -73.9394992, "tags": {"addr:city": "Long Island City", "addr:housenumber": "42-12", "addr:postcode": "11101", "addr:state": "NY", "addr:street": "28th Street", "amenity": "restaurant", "cuisine": "indian", "diet:halal": "yes", "name": "Raj's Indian Kitchen", "opening_hours": "Mo-Sa 11:00-22:00; Su 00:00-21:00", "phone": "+1-718-361-8844", "takeaway": "yes", "website": "https://orderrajsindiankitchen.com/"}}, {"type": "node", "id": 10994725859, "lat": 40.7486689, "lon": -73.9409808}, {"type": "node", "id": 10994725867, "lat": 40.7486297, "lon": -73.940951}, {"type": "node", "id": 10994725871, "lat": 40.7486898, "lon": -73.9410096}, {"type": "node", "id": 10994725873, "lat": 40.748538, "lon": -73.941022}, {"type": "node", "id": 10994725875, "lat": 40.7486958, "lon": -73.941049}, {"type": "node", "id": 11686570138, "lat": 40.7509119, "lon": -73.937035, "tags": {"addr:housenumber": "41-10", "addr:postcode": "11101", "addr:street": "29th Street", "amenity": "restaurant", "cuisine": "chinese", "disused:shop": "yes", "name": "Fer", "website": "https://www.fer-nyc.com/"}}, {"type": "node", "id": 11736908591, "lat": 40.748843, "lon": -73.9424279, "tags": {"amenity": "cafe", "indoor_seating": "yes", "name": "Vert Frais", "outdoor_seating": "no"}}, {"type": "node", "id": 11736925169, "lat": 40.7520717, "lon": -73.9390626, "tags": {"amenity": "restaurant", "cuisine": "ramen", "name": "Sansan Ramen"}}, {"type": "node", "id": 11737903614, "lat": 40.7481389, "lon": -73.9400703, "tags": {"addr:housenumber": "27-35", "addr:street": "Jackson Avenue", "amenity": "restaurant", "branch": "Long Island City", "contact:email": "jinglilic@gmail.com", "cuisine": "shanghai", "delivery": "yes", "name": "Jing Li", "opening_hours": "Mo-Th 11:30-22:30; Fr, Sa 11:30-02:00; Su 12:00-22:30", "phone": "+1 718-255-6661", "reservation": "yes", "takeaway": "yes", "website": "https://jinglinyc.com/"}}, {"type": "node", "id": 11739392410, "lat": 40.7486632, "lon": -73.9401364, "tags": {"addr:housenumber": "42-61", "addr:street": "Hunter Street", "amenity": "cafe", "level": "0", "name": "Cuppa Tea", "wheelchair": "yes"}}, {"type": "node", "id": 11761107808, "lat": 40.7485883, "lon": -73.9377506, "tags": {"addr:housenumber": "28-30", "addr:street": "Jackson Avenue", "amenity": "restaurant", "contact:facebook": "MurraysCheeseBar", "contact:instagram": "murrayscheesebar", "delivery": "yes", "name": "Murray's Cheese Bar", "opening_hours": "Mo-We 12:00-21:00; Th, Fr 12:00-22:00; Sa 11:00-22:00; Su 11:00-21:00", "phone": "+1 347-990-2130", "reservation": "yes", "reservation:website": "https://resy.com/cities/ny/murrays-cheese-bar-lic", "takeaway": "yes", "website": "https://www.murrayscheesebar.com/"}}, {"type": "node", "id": 11993079620, "lat": 40.7488931, "lon": -73.938047, "tags": {"amenity": "cafe", "cuisine": "asian", "name": "Spot Dessert Bar", "opening_hours": "Mo-Th 12:00-00:00; Fr 12:00-01:00; Sa 11:00-01:00; Su 11:00-02:00"}}, {"type": "node", "id": 12048266251, "lat": 40.7486889, "lon": -73.9400537, "tags": {"addr:city": "Long Island City", "addr:housenumber": "42-59", "addr:postcode": "11101", "addr:state": "NY", "addr:street": "Hunter Street", "amenity": "restaurant", "bar": "yes", "cuisine": "chinese;asian", "diet:chicken": "yes", "diet:healthy": "yes", "diet:seafood": "yes", "name": "Chi Chicken", "phone": "+1 718-988-7878"}}, {"type": "node", "id": 12798525382, "lat": 40.7498432, "lon": -73.9410664, "tags": {"addr:city": "Long Island City", "addr:housenumber": "42-20", "addr:postcode": "11101", "addr:state": "NY", "addr:street": "27th Street", "amenity": "cafe", "brand": "Heytea", "brand:en": "Heytea", "brand:wikidata": "Q60875376", "brand:zh": "\u559c\u8336", "cuisine": "bubble_tea", "name": "Heytea", "name:en": "Heytea", "name:zh": "\u559c\u8336", "opening_hours": "Mo-Su 11:00-21:45", "outdoor_seating": "no", "phone": "+1 929-682-9805", "takeaway": "yes", "website": "https://www.heytea.com/"}}, {"type": "node", "id": 12952378754, "lat": 40.7502152, "lon": -73.9368691, "tags": {"addr:city": "Long Island City", "addr:housenumber": "29-21", "addr:postcode": "11101", "addr:state": "NY", "addr:street": "41st Avenue", "air_conditioning": "yes", "amenity": "restaurant", "breakfast": "yes", "check_date": "2025-06-25", "cuisine": "american", "dinner": "yes", "level": "0", "lunch": "no", "name": "The Garden Grille & Bar", "official_name": "The Garden Grille and Bar", "outdoor_seating": "no"}}, {"type": "node", "id": 13125622036, "lat": 40.7490625, "lon": -73.942171, "tags": {"addr:housenumber": "42-60", "addr:postcode": "11101", "addr:street": "Crescent Street", "amenity": "cafe", "contact:email": "hello@softbite.us", "contact:instagram": "softbiteus", "cuisine": "japanese", "dish": "crepe", "level": "0", "name": "Softbite", "opening_hours": "Mo-Th 10:00-21:00; Fr-Su 09:00-21:00", "phone": "+1 347-612-4136", "website": "https://www.softbite.us/"}}, {"type": "node", "id": 13276804568, "lat": 40.7487438, "lon": -73.941009, "tags": {"addr:housenumber": "42-45", "addr:street": "27th Street", "amenity": "restaurant", "name": "Gulp"}}, {"type": "way", "id": 143932285, "nodes": [1575010812, 1575010811, 2087152341, 2963821766, 1575010807, 8986369406, 1575010817, 1575010812], "tags": {"leisure": "park", "name": "Queensboro Bridge Greenway"}}, {"type": "way", "id": 143932286, "nodes": [1575010823, 2963821770, 2963821769, 2087152338, 2087152337, 2469076040, 1575010808, 2469076041, 1575010818, 2963821765, 2963821764, 1575010815, 1575010821, 1575010816, 1575010823], "tags": {"leisure": "park", "name": "Dutch Kills Green"}}, {"type": "way", "id": 281342861, "nodes": [2853053029, 2853053059, 2853053069, 2853053041, 2853053029], "tags": {"addr:housenumber": "42-45", "addr:postcode": "11101", "addr:street": "27th Street", "amenity": "restaurant", "building": "yes", "cuisine": "taiwanese", "height": "4.3", "name": "Gulp", "nycdoitt:bin": "4005109", "opening_hours": "Mo-Th, Su 11:30-23:00; Fr, Sa 11:30-00:00"}}, {"type": "way", "id": 281342887, "nodes": [2853052608, 2853052493, 2853052612, 2853052653, 2853052621, 2853052608], "tags": {"addr:city": "Long Island City", "addr:housenumber": "43-15", "addr:postcode": "11101", "addr:state": "NY", "addr:street": "Crescent Street", "amenity": "restaurant", "building": "yes", "check_date": "2024-01-30", "height": "4.2", "name": "M. Wells Steakhouse", "nycdoitt:bin": "4436807", "phone": "+1 718 786-9060", "website": "http://magasinwells.com/"}}, {"type": "way", "id": 371765883, "nodes": [3753152822, 10994725873, 3753152803, 10994725867, 10994725859, 10994725871, 10994725875, 3753152802, 3753152822], "tags": {"leisure": "park", "name": "Greenstreets"}}, {"type": "way", "id": 371765890, "nodes": [3753152810, 3753152806, 3753152805, 3753152810], "tags": {"leisure": "park"}}, {"type": "way", "id": 1183932080, "nodes": [2853052268, 3753152813, 9395735791, 2853052239, 2853052260, 2853052268], "tags": {"addr:housenumber": "27-10", "addr:postcode": "11101", "addr:street": "43rd Avenue", "amenity": "restaurant", "branch": "Long Island City", "building": "commercial", "building:levels": "1", "cuisine": "tex-mex", "name": "Tacombi", "opening_hours": "Mo-Fr 12:00-23:00; Sa, Su 11:00-23:00", "outdoor_seating": "yes", "phone": "+1 929-296-0316", "reservation": "yes", "reservation:website": "https://resy.com/cities/ny/tacombi-lic", "website": "https://www.tacombi.com/"}}, {"type": "way", "id": 1447029718, "nodes": [6575834843, 6575834841, 6575834822, 6575834838, 6575834834, 6575834827, 6575834835, 6575834839, 6575834837, 6575834826, 6575834824, 6575834833, 6575834832, 6575834830, 6575834842, 6575834831, 6575834836, 2853053229, 2853053211, 2853053099, 2853053096, 2853053100, 6575834843], "tags": {"access": "customers", "leisure": "park", "location": "roof"}}]}