{"version": 0.6, "generator": "Overpass API 0.7.62.8 e802775f", "osm3s": {"timestamp_osm_base": "2025-12-01T03:59:56Z", "copyright": "The data included in this document is from www.openstreetmap.org. The data is made available under ODbL."}, "elements": [{"type": "node", "id": 357616314, "lat": 40.8266667, "lon": -73.9461111, "tags": {"amenity": "school", "ele": "37", "gnis:feature_id": "2079010", "name": "Childs Memorial Academy"}}, {"type": "node", "id": 357650517, "lat": 40.8269444, "lon": -73.9427778, "tags": {"ele": "31", "gnis:feature_id": "2500781", "leisure": "park", "name": "Donnellan Square", "wikidata": "Q49483730"}}, {"type": "node", "id": 1242171933, "lat": 40.8295788, "lon": -73.9395383}, {"type": "node", "id": 1242171934, "lat": 40.8299136, "lon": -73.9396487}, {"type": "node", "id": 1242171956, "lat": 40.8282057, "lon": -73.9394537}, {"type": "node", "id": 1242171967, "lat": 40.8297158, "lon": -73.938806}, {"type": "node", "id": 1242171973, "lat": 40.8292569, "lon": -73.9396144}, {"type": "node", "id": 1242171993, "lat": 40.8300382, "lon": -73.9395687}, {"type": "node", "id": 1242172074, "lat": 40.8237663, "lon": -73.9436236}, {"type": "node", "id": 1242172078, "lat": 40.830023, "lon": -73.9396615}, {"type": "node", "id": 1242172135, "lat": 40.8234304, "lon": -73.9429487}, {"type": "node", "id": 2562438636, "lat": 40.8237853, "lon": -73.9445884, "tags": {"addr:housenumber": "358", "addr:postcode": "10030", "addr:street": "West 145th Street", "amenity": "bureau_de_change", "atm": "yes", "name": "CFSC", "office": "financial", "official_name": "Community Financial Service Centers", "opening_hours": "24/7", "phone": "+1-212-368-1657", "website": "https://locations.cfsc.com/cfsc-checks-cashed-358-w-145th-82920f09bf48"}}, {"type": "node", "id": 2768119388, "lat": 40.8237971, "lon": -73.9426803}, {"type": "node", "id": 2768119390, "lat": 40.8237989, "lon": -73.942674}, {"type": "node", "id": 2768119392, "lat": 40.8238025, "lon": -73.9426669}, {"type": "node", "id": 2768119394, "lat": 40.8238084, "lon": -73.9426588}, {"type": "node", "id": 2768119396, "lat": 40.8238158, "lon": -73.9426529}, {"type": "node", "id": 2768119398, "lat": 40.8238235, "lon": -73.94265}, {"type": "node", "id": 2768119455, "lat": 40.8243095, "lon": -73.9423323}, {"type": "node", "id": 2768119457, "lat": 40.8246339, "lon": -73.942077}, {"type": "node", "id": 2768119458, "lat": 40.8246347, "lon": -73.9420881}, {"type": "node", "id": 2768119460, "lat": 40.8246353, "lon": -73.9420669}, {"type": "node", "id": 2768119462, "lat": 40.824636, "lon": -73.9420935}, {"type": "node", "id": 2768119464, "lat": 40.824637, "lon": -73.9420609}, {"type": "node", "id": 2768119466, "lat": 40.8246417, "lon": -73.9420516}, {"type": "node", "id": 2768119468, "lat": 40.8246481, "lon": -73.9420443}, {"type": "node", "id": 2768119470, "lat": 40.8246518, "lon": -73.9420416}, {"type": "node", "id": 2768119472, "lat": 40.8246599, "lon": -73.9420383}, {"type": "node", "id": 2768119474, "lat": 40.8246678, "lon": -73.9420379}, {"type": "node", "id": 2768119476, "lat": 40.8246732, "lon": -73.9420391}, {"type": "node", "id": 4111168991, "lat": 40.8233265, "lon": -73.9426474, "tags": {"addr:city": "New York", "addr:housenumber": "301", "addr:postcode": "10039", "addr:state": "NY", "addr:street": "West 145th Street", "amenity": "cafe", "branch": "145th & Bradhurst", "brand": "Starbucks", "brand:wikidata": "Q37158", "cuisine": "coffee_shop", "drink:coffee": "yes", "drink:tea": "yes", "name": "Starbucks", "official_name": "Starbucks Coffee", "opening_hours": "Mo-Fr 05:30-21:00; Sa, Su 06:00-21:00", "phone": "+1 212-690-7835", "takeaway": "yes", "toilets": "no", "website": "https://www.starbucks.com/store-locator/store/18230/145th-bradhurst-301-w-145th-st-new-york-ny-100393159-us"}}, {"type": "node", "id": 4928962209, "lat": 40.8259256, "lon": -73.9473575, "tags": {"addr:city": "New York", "addr:housenumber": "500", "addr:state": "NY", "addr:street": "West 146th Street", "amenity": "restaurant", "cuisine": "japanese", "name": "Chopped Parsley"}}, {"type": "node", "id": 4928962210, "lat": 40.8265979, "lon": -73.9470509, "tags": {"addr:city": "New York", "addr:housenumber": "1750", "addr:state": "NY", "addr:street": "Amsterdam Avenue", "amenity": "school", "name": "Hamilton Heights School"}}, {"type": "node", "id": 4928962211, "lat": 40.8268145, "lon": -73.9466673, "tags": {"addr:city": "New York", "addr:housenumber": "1768", "addr:postcode": "10031", "addr:state": "NY", "addr:street": "Amsterdam Avenue", "amenity": "restaurant", "cuisine": "indian", "name": "Mumbai Masala Indian Grill"}}, {"type": "node", "id": 5281909155, "lat": 40.8242066, "lon": -73.9456088, "tags": {"addr:city": "New York", "addr:housenumber": "410", "addr:postcode": "10031", "addr:state": "NY", "addr:street": "West 145th Street", "amenity": "cafe", "name": "Sugar Hill Caf\u00e9", "opening_hours": "Mo-Fr 07:30-15:30;Sa-Su 09:00-15:00", "toilets": "yes"}}, {"type": "node", "id": 5296101437, "lat": 40.8262841, "lon": -73.9434171, "tags": {"addr:housenumber": "763", "addr:street": "Saint Nicholas Avenue", "amenity": "restaurant", "cuisine": "ethiopian", "name": "Tsion Cafe", "opening_hours": "Sa 10:00-23:30; Su 10:00-22:00; Tu, We 11:59-22:00; Th, Fr 11:59-23:30", "phone": "+1-212-234-2070", "toilets": "yes"}}, {"type": "node", "id": 7738238840, "lat": 40.8293481, "lon": -73.9395773}, {"type": "node", "id": 7738238841, "lat": 40.8296402, "lon": -73.9395403}, {"type": "node", "id": 7738238842, "lat": 40.8295001, "lon": -73.9395442}, {"type": "node", "id": 7738238843, "lat": 40.8297153, "lon": -73.9395494}, {"type": "node", "id": 7738238844, "lat": 40.8297676, "lon": -73.9395634}, {"type": "node", "id": 7738238845, "lat": 40.8298189, "lon": -73.9395869}, {"type": "node", "id": 7738238846, "lat": 40.8299828, "lon": -73.9396905}, {"type": "node", "id": 7738238847, "lat": 40.8294325, "lon": -73.9395561}, {"type": "node", "id": 7738238848, "lat": 40.8292936, "lon": -73.9395963}, {"type": "node", "id": 9463765469, "lat": 40.8237017, "lon": -73.9435956}, {"type": "node", "id": 9463765500, "lat": 40.8238327, "lon": -73.94265}, {"type": "node", "id": 9463765501, "lat": 40.8238408, "lon": -73.942653}, {"type": "node", "id": 9463765502, "lat": 40.8238479, "lon": -73.942658}, {"type": "node", "id": 9463765503, "lat": 40.8238517, "lon": -73.9426617}, {"type": "node", "id": 9851588445, "lat": 40.8227941, "lon": -73.9456279, "tags": {"addr:city": "New York", "addr:housenumber": "655", "addr:postcode": "10030", "addr:state": "NY", "addr:street": "Saint Nicholas Avenue", "amenity": "school", "grades": "K-8", "name": "Harlem Academy", "website": "https://www.harlemacademy.org"}}, {"type": "node", "id": 10762002909, "lat": 40.8236682, "lon": -73.9442969, "tags": {"amenity": "restaurant", "cuisine": "mexican", "name": "Taqueria El Chiltepin 3", "opening_hours": "Mo-Su 10:00-23:59", "phone": "+1-212-283-2100", "website": "https://www.taqueriaelchiltepin3.com"}}, {"type": "way", "id": 108237828, "nodes": [1242172135, 9463765469, 1242172074, 1242171973, 7738238848, 7738238840, 7738238847, 7738238842, 1242171933, 7738238841, 7738238843, 7738238844, 7738238845, 1242171934, 7738238846, 1242172078, 1242171993, 1242171967, 1242171956, 2768119476, 2768119474, 2768119472, 2768119470, 2768119468, 2768119466, 2768119464, 2768119460, 2768119457, 2768119458, 2768119462, 2768119455, 9463765503, 9463765502, 9463765501, 9463765500, 2768119398, 2768119396, 2768119394, 2768119392, 2768119390, 2768119388, 1242172135], "tags": {"ele": "8", "gnis:feature_id": "947175", "leisure": "park", "name": "Jackie Robinson Park", "name:etymology:wikidata": "Q221048", "operator": "New York City Department of Parks and Recreation", "operator:short": "NYC Parks", "operator:type": "government", "operator:wikidata": "Q1894232", "website": "https://www.nycgovparks.org/parks/jackie-robinson-park_manhattan", "wikidata": "Q49506073"}}]}