{"version": 0.6, "generator": "Overpass API 0.7.62.8 e802775f", "osm3s": {"timestamp_osm_base": "2025-12-01T15:48:56Z", "copyright": "The data included in this document is from www.openstreetmap.org. The data is made available under ODbL."}, "elements": [{"type": "node", "id": 357580731, "lat": 40.6831588, "lon": -73.8770803, "tags": {"amenity": "school", "ele": "13", "gnis:feature_id": "961796", "name": "Public School 65K", "wikidata": "Q7257555"}}, {"type": "node", "id": 9601834898, "lat": 40.6811968, "lon": -73.8763942, "tags": {"addr:city": "Brooklyn", "addr:housenumber": "76", "addr:postcode": "11208", "addr:state": "NY", "addr:street": "Dinsmore Place", "amenity": "school", "grades": "6-8", "name": "M.S. 935", "operator:type": "public", "operator:wikidata": "Q408230", "ref:nycschools": "K935"}}, {"type": "node", "id": 13144718471, "lat": 40.6844492, "lon": -73.8761688, "tags": {"amenity": "restaurant", "catering": "yes", "cuisine": "latin_american;breakfast", "delivery": "yes", "name": "Don Pablo Restaurant", "phone": "+1-347-937-6584", "takeaway": "yes"}}, {"type": "node", "id": 13176968678, "lat": 40.6823508, "lon": -73.8763512, "tags": {"name": "Cypress Hills Local Development Corporation", "office": "association", "phone": "+1-718-647-8100"}}, {"type": "node", "id": 13187243300, "lat": 40.6812159, "lon": -73.8762595, "tags": {"addr:housenumber": "76", "addr:postcode": "11208", "addr:street": "Dinsmore Place", "alt_name": "District 19 S.T.E.M. Academy", "amenity": "school", "grades": "PK-5", "name": "P.S. 938", "operator:type": "public", "operator:wikidata": "Q408230", "phone": "+1-929-480-2100", "ref:nycschools": "K938", "website": "https://sites.google.com/schools.nyc.gov/ps938"}}]}