{"version": 0.6, "generator": "Overpass API 0.7.62.8 e802775f", "osm3s": {"timestamp_osm_base": "2025-12-01T03:48:54Z", "copyright": "The data included in this document is from www.openstreetmap.org. The data is made available under ODbL."}, "elements": [{"type": "node", "id": 246525111, "lat": 40.7416634, "lon": -73.9889842}, {"type": "node", "id": 246525115, "lat": 40.7427489, "lon": -73.9867133, "tags": {"barrier": "kerb", "kerb": "lowered", "tactile_paving": "yes"}}, {"type": "node", "id": 402743563, "lat": 40.748491, "lon": -73.9865012}, {"type": "node", "id": 402743567, "lat": 40.7479255, "lon": -73.9851602}, {"type": "node", "id": 402743571, "lat": 40.7483931, "lon": -73.9848166}, {"type": "node", "id": 402743573, "lat": 40.7489585, "lon": -73.9861574}, {"type": "node", "id": 883235940, "lat": 40.7481846, "lon": -73.985687, "tags": {"addr:city": "New York", "addr:country": "US", "addr:housenumber": "350", "addr:postcode": "10118", "addr:state": "NY", "addr:street": "5th Avenue", "addr:unit": "6", "amenity": "cafe", "branch": "Empire State Building Reserve", "brand": "Starbucks", "brand:wikidata": "Q37158", "cuisine": "coffee_shop", "drink:coffee": "yes", "drink:soy_milk": "yes", "internet_access": "wlan", "internet_access:fee": "no", "level": "0", "name": "Starbucks", "official_name": "Starbucks Coffee", "opening_hours": "Mo-Fr 06:30-18:00", "outdoor_seating": "no", "phone": "+1 212-564-9141", "takeaway": "yes", "toilets": "yes", "toilets:access": "yes", "toilets:wheelchair": "yes", "website": "https://www.starbucks.com/store-locator/store/7549/34th-st-empire-state-building-350-fifth-avenue-new-york-ny-101180110-us", "wheelchair": "yes"}}, {"type": "node", "id": 1383914860, "lat": 40.7456818, "lon": -73.9881244, "tags": {"addr:city": "New York", "addr:housenumber": "16", "addr:postcode": "10001", "addr:state": "NY", "addr:street": "West 29th Street", "amenity": "restaurant", "cuisine": "gastropub", "delivery": "no", "name": "The Breslin", "opening_hours": "Mo-Su 07:00-02:00", "outdoor_seating": "no", "phone": "+1 212-679-1939", "smoking": "no", "wheelchair": "yes"}}, {"type": "node", "id": 1428185707, "lat": 40.7433913, "lon": -73.9892649, "tags": {"addr:city": "New York", "addr:housenumber": "1123", "addr:postcode": "10010", "addr:street": "Broadway", "amenity": "cafe", "name": "Broadway Cafe", "phone": "+1-212-727-9797"}}, {"type": "node", "id": 1709979773, "lat": 40.7451284, "lon": -73.9854212}, {"type": "node", "id": 2027071449, "lat": 40.7480023, "lon": -73.9858823, "tags": {"addr:city": "New York", "addr:housenumber": "6", "addr:postcode": "10001", "addr:state": "NY", "addr:street": "West 33rd Street", "amenity": "pub", "name": "Legends", "opening_hours": "Mo-Su 11:00-23:00", "phone": "+1-212-967-7792", "theme": "sports_bar", "website": "https://www.legends33.com"}}, {"type": "node", "id": 2081539634, "lat": 40.7471688, "lon": -73.9852137, "tags": {"addr:city": "New York", "addr:country": "US", "addr:housenumber": "319", "addr:postcode": "10016", "addr:state": "NY", "addr:street": "5th Avenue", "amenity": "restaurant", "cuisine": "chicken;korean", "name": "LOVE Korean BBQ", "phone": "+1-646-669-8147", "website": "https://lovekoreanbbq.com/"}}, {"type": "node", "id": 2307164619, "lat": 40.7446263, "lon": -73.9907963}, {"type": "node", "id": 2307164621, "lat": 40.7448876, "lon": -73.9906696}, {"type": "node", "id": 2307164625, "lat": 40.7445802, "lon": -73.9906883}, {"type": "node", "id": 2307164626, "lat": 40.7460666, "lon": -73.9902685, "tags": {"addr:housenumber": "816", "addr:postcode": "10001", "addr:street": "Avenue Of The Americas", "amenity": "restaurant", "bar": "yes", "cocktails": "yes", "cuisine": "korean", "drink:beer": "draught", "drink:liquor": "yes", "drink:wine": "yes", "name": "Barn Joo Nomad", "outdoor_seating": "yes", "phone": "+1-917-409-1637", "website": "https://www.barnjoonomad.com"}}, {"type": "node", "id": 2307164627, "lat": 40.7448694, "lon": -73.990624}, {"type": "node", "id": 2307167700, "lat": 40.7468975, "lon": -73.9922271, "tags": {"addr:city": "New York", "addr:country": "US", "addr:housenumber": "139", "addr:state": "NY", "addr:street": "West 28th Street", "amenity": "restaurant", "cuisine": "sushi", "name": "Izumi", "source": "survey", "website": "http://www.izumisushiny.com/"}}, {"type": "node", "id": 2412370159, "lat": 40.7435996, "lon": -73.98616, "tags": {"addr:city": "New York", "addr:housenumber": "66", "addr:postcode": "10010", "addr:street": "Madison Avenue", "amenity": "restaurant", "branch": "Flatiron", "cuisine": "sandwich", "drink:beer": "served", "name": "Olde City", "opening_hours": "Mo-Su 11:00-24:00", "opening_hours:kitchen": "11:00-24:00", "phone": "+1 929-281-3222", "website": "https://www.loveoldecity.com/", "wheelchair": "yes"}}, {"type": "node", "id": 2549948620, "lat": 40.7445908, "lon": -73.988682, "tags": {"addr:city": "New York", "addr:housenumber": "1158", "addr:postcode": "10001", "addr:state": "NY", "addr:street": "Broadway", "amenity": "cafe", "branch": "NoMad", "cuisine": "coffee_shop;japanese", "drink:matcha": "yes", "name": "Cha Cha Matcha", "opening_hours": "Mo-Fr 08:00-19:30; Sa, Su 09:00-19:30", "website": "https://chachamatcha.com/pages/locations?location=new-york-city"}}, {"type": "node", "id": 2549952990, "lat": 40.7444738, "lon": -73.9890362, "tags": {"addr:housenumber": "1155", "addr:postcode": "10001", "addr:street": "Broadway", "amenity": "restaurant", "cuisine": "mexican", "name": "Mamazul Mexican Grill", "opening_hours": "Mo-Su 08:00-02:00", "phone": "+1-212-500-6988", "website": "https://www.mamazulnyc.com/"}}, {"type": "node", "id": 2549953088, "lat": 40.7445195, "lon": -73.9904827, "tags": {"addr:housenumber": "37", "addr:postcode": "10001", "addr:street": "West 26th Street", "amenity": "bar", "cuisine": "american;continental", "diet:gluten_free": "yes", "diet:vegan": "yes", "diet:vegetarian": "yes", "live_music": "yes", "name": "The Flatiron Room", "opening_hours": "Mo-Fr 16:00-02:00; Sa 17:00-02:00; Su 17:00-24:00", "operator": "Goodnight Group", "phone": "+1-212-725-3860", "website": "https://www.theflatironroom.com"}}, {"type": "node", "id": 2549953101, "lat": 40.7451365, "lon": -73.9900429, "tags": {"addr:housenumber": "45", "addr:postcode": "10001", "addr:street": "West 27th Street", "amenity": "bar", "name": "Oscar Wilde"}}, {"type": "node", "id": 2549953397, "lat": 40.7448191, "lon": -73.9904807}, {"type": "node", "id": 2549953424, "lat": 40.7448297, "lon": -73.9905042}, {"type": "node", "id": 2549953465, "lat": 40.7450531, "lon": -73.9903138}, {"type": "node", "id": 2549960961, "lat": 40.7453942, "lon": -73.9912033, "tags": {"addr:city": "New York", "addr:housenumber": "793", "addr:postcode": "10001", "addr:state": "NY", "addr:street": "6th Avenue", "air_conditioning": "yes", "amenity": "restaurant", "cuisine": "korean", "name": "Hee Korean BBQ Grill"}}, {"type": "node", "id": 2555992944, "lat": 40.7446507, "lon": -73.9877715, "tags": {"addr:city": "New York", "addr:country": "US", "addr:housenumber": "244", "addr:postcode": "10001", "addr:state": "NY", "addr:street": "5th Avenue", "addr:unit": "B239", "name": "BKLTD.co", "office": "advertising_agency", "website": "https://bkltd.creativemf.com/"}}, {"type": "node", "id": 2621558446, "lat": 40.7442736, "lon": -73.9904326, "tags": {"addr:city": "New York", "addr:housenumber": "30", "addr:postcode": "10010", "addr:street": "West 26th Street", "amenity": "restaurant", "bar": "yes", "cuisine": "barbecue", "delivery": "Mo-Su 12:15-20:00", "internet_access": "wlan", "name": "Hill Country Barbecue Market", "opening_hours": "Mo,Tu 14:00-21:00; We-Su 12:00-21:00", "phone": "+1-212-255-4544", "smoking": "outside", "takeaway": "yes", "website": "https://www.hillcountry.com", "wheelchair": "limited"}}, {"type": "node", "id": 2621558482, "lat": 40.7443244, "lon": -73.9900461, "tags": {"addr:city": "New York", "addr:housename": "29", "addr:postcode": "10001", "addr:street": "West 26th Street", "amenity": "restaurant", "cuisine": "latin_american", "name": "Latin American Restaurant", "phone": "+1-212-689-2570", "wheelchair": "no"}}, {"type": "node", "id": 2621577431, "lat": 40.7438766, "lon": -73.9887987, "tags": {"addr:city": "New York", "addr:housenumber": "1140", "addr:postcode": "10001", "addr:state": "NY", "addr:street": "Broadway", "amenity": "cafe", "branch": "26th & Broadway", "brand": "Starbucks", "brand:wikidata": "Q37158", "check_date": "2023-03-19", "cuisine": "coffee_shop", "internet_access": "wlan", "internet_access:fee": "customers", "name": "Starbucks", "official_name": "Starbucks Coffee", "payment:credit_cards": "yes", "payment:debit_cards": "yes", "payment:mastercard": "yes", "payment:visa": "yes", "phone": "+1 212-213-6519", "ref": "70030", "takeaway": "yes", "website": "https://www.starbucks.com/store-locator/store/70030/26th-broadway-1140-broadway-new-york-ny-100017504-us"}}, {"type": "node", "id": 2622636229, "lat": 40.743266, "lon": -73.991263, "tags": {"addr:city": "New York", "addr:housenumber": "49", "addr:postcode": "10010", "addr:street": "24th Street", "amenity": "restaurant", "cuisine": "pizza", "name": "Tappo", "phone": "+1-212-807-9200", "website": "tappothincrust.com"}}, {"type": "node", "id": 2626236854, "lat": 40.7444122, "lon": -73.9907381, "tags": {"addr:city": "New York", "addr:housenumber": "38", "addr:postcode": "10010", "addr:state": "NY", "addr:street": "West 26th Street", "amenity": "pub", "name": "Flatiron Hall Restaurant and Beer Cellar", "opening_hours": "Mo-Tu 12:00-24:00; We,Th 12:00-1:00; Fr,Sa 12:00-2:00; Su 11:00-22:00", "phone": "+1-646-790-3200", "website": "https://www.flatironhall.com/"}}, {"type": "node", "id": 2626236856, "lat": 40.7445509, "lon": -73.9905594, "tags": {"addr:city": "New York", "addr:housenumber": "43", "addr:postcode": "10010", "addr:street": "West 26th Street", "amenity": "bar", "name": "Grey Bar & Restaurant", "opening_hours": "12:00 - 2:00", "phone": "+1-212-532-2643", "website": "https://www.greybarnyc.com/"}}, {"type": "node", "id": 2634318928, "lat": 40.7450623, "lon": -73.9903368}, {"type": "node", "id": 2634398946, "lat": 40.7452192, "lon": -73.9908474, "tags": {"addr:city": "New York", "addr:housenumber": "776", "addr:postcode": "10001", "addr:state": "NY", "addr:street": "Avenue of the Americas", "amenity": "cafe", "branch": "27th & 6th", "brand": "Starbucks", "brand:wikidata": "Q37158", "cuisine": "coffee_shop", "name": "Starbucks", "official_name": "Starbucks Coffee", "phone": "+1 212-481-1856", "takeaway": "yes", "website": "https://www.starbucks.com/store-locator/store/11291/27th-6th-776-avenue-of-the-americas-new-york-ny-100016354-u"}}, {"type": "node", "id": 2679311665, "lat": 40.7444118, "lon": -73.991938, "tags": {"addr:city": "New York", "addr:housenumber": "757", "addr:postcode": "10001", "addr:state": "NY", "addr:street": "6th Avenue", "amenity": "bar", "cocktails": "yes", "drink:beer": "draught", "drink:liquor": "yes", "drink:wine": "yes", "happy_hours": "Mo-Fr 15:00-19:00", "name": "Storehouse", "toilets": "yes", "toilets:access": "customers", "website": "https://www.thestorehousenyc.com/"}}, {"type": "node", "id": 2688438317, "lat": 40.7442104, "lon": -73.9903727, "tags": {"addr:city": "New York", "addr:housenumber": "30", "addr:postcode": "10010", "addr:state": "NY", "addr:street": "West 26th Street", "level": "7", "name": "Samsung Accelerator", "office": "company", "smoking": "no", "website": "http://samsungaccelerator.com"}}, {"type": "node", "id": 2703449561, "lat": 40.74747, "lon": -73.9888573}, {"type": "node", "id": 2703449572, "lat": 40.7475228, "lon": -73.9889826}, {"type": "node", "id": 2703449586, "lat": 40.7476271, "lon": -73.9889069}, {"type": "node", "id": 2703449593, "lat": 40.7476756, "lon": -73.9888713}, {"type": "node", "id": 2706939822, "lat": 40.7451928, "lon": -73.9882354, "tags": {"addr:city": "New York", "addr:housenumber": "15", "addr:postcode": "10001", "addr:state": "NY", "addr:street": "West 28th Street", "name": "The City Congregation for Humanistic Judaism", "office": "religion", "phone": "+1-212-213-1002", "religion": "jewish", "website": "https://www.citycongregation.org/"}}, {"type": "node", "id": 2706939893, "lat": 40.7443212, "lon": -73.9862186}, {"type": "node", "id": 2706939899, "lat": 40.7443963, "lon": -73.9861241}, {"type": "node", "id": 2706939900, "lat": 40.744409, "lon": -73.9861535}, {"type": "node", "id": 2706939903, "lat": 40.7444573, "lon": -73.9865394}, {"type": "node", "id": 2706939911, "lat": 40.7446143, "lon": -73.9860679}, {"type": "node", "id": 2706939912, "lat": 40.7446171, "lon": -73.9860568}, {"type": "node", "id": 2706939914, "lat": 40.7446292, "lon": -73.9859968}, {"type": "node", "id": 2706939915, "lat": 40.7446374, "lon": -73.9861675}, {"type": "node", "id": 2706939918, "lat": 40.7446458, "lon": -73.9860355}, {"type": "node", "id": 2706939919, "lat": 40.7446523, "lon": -73.9861564}, {"type": "node", "id": 2706939921, "lat": 40.7446674, "lon": -73.9863835}, {"type": "node", "id": 2706939922, "lat": 40.744672, "lon": -73.9862481}, {"type": "node", "id": 2706939924, "lat": 40.7446854, "lon": -73.9862381}, {"type": "node", "id": 2706939928, "lat": 40.744722, "lon": -73.9863232}, {"type": "node", "id": 2706939931, "lat": 40.7447315, "lon": -73.986328}, {"type": "node", "id": 2706939937, "lat": 40.7447559, "lon": -73.9863726}, {"type": "node", "id": 2706939939, "lat": 40.7447617, "lon": -73.9863056}, {"type": "node", "id": 2706939942, "lat": 40.7447821, "lon": -73.9863532}, {"type": "node", "id": 2706939961, "lat": 40.7449817, "lon": -73.9851367}, {"type": "node", "id": 2706939976, "lat": 40.7450426, "lon": -73.9850925}, {"type": "node", "id": 2706939988, "lat": 40.7451069, "lon": -73.9854368}, {"type": "node", "id": 2706940001, "lat": 40.7451678, "lon": -73.9853926}, {"type": "node", "id": 2709306713, "lat": 40.7475091, "lon": -73.9860606, "tags": {"addr:housenumber": "5", "addr:postcode": "10001", "addr:street": "West 32nd Street", "amenity": "restaurant", "branch": "Manhattan, NY", "brand": "BCD Tofu House", "brand:wikidata": "Q125537897", "cuisine": "korean", "delivery": "yes", "level": "0", "name": "BCD Tofu House", "opening_hours": "Su-Th 10:30-01:00; Fr-Sa 10:30-05:00", "outdoor_seating": "no", "phone": "+1 212-967-1900", "takeaway": "yes", "website": "https://www.bcdtofuhouse.com"}}, {"type": "node", "id": 2709307464, "lat": 40.7485145, "lon": -73.9864839}, {"type": "node", "id": 2709307499, "lat": 40.748689, "lon": -73.9863554}, {"type": "node", "id": 2709307502, "lat": 40.7487301, "lon": -73.9863252}, {"type": "node", "id": 3019038940, "lat": 40.7433504, "lon": -73.9880644}, {"type": "node", "id": 3145937665, "lat": 40.7440806, "lon": -73.9894469, "tags": {"addr:city": "New York", "addr:housenumber": "13", "addr:postcode": "10010", "addr:state": "NY", "addr:street": "West 26th Street", "amenity": "restaurant", "cuisine": "japanese", "name": "Izakaya NoMad", "opening_hours": "Mo-We 12:00-14:30, 17:30-00:00; Th-Fr 12:00-14:30, 17:30-01:00; Sa 17:30-01:00", "phone": "+1 212-213-6258", "smoking": "no", "website": "https://www.izakayanomad.com/"}}, {"type": "node", "id": 3463814923, "lat": 40.7477981, "lon": -73.9872728, "tags": {"addr:city": "New York", "addr:housenumber": "34", "addr:postcode": "10001", "addr:state": "NY", "addr:street": "West 32nd Street", "amenity": "restaurant", "cuisine": "korean", "name": "Seoul Garden", "opening_hours": "Su-Th 11:00-24:00, Fr-Sa 11:00-02:00", "phone": "+1 212-736-9002", "source": "business card survey"}}, {"type": "node", "id": 3843919259, "lat": 40.7439497, "lon": -73.9887933, "tags": {"addr:housenumber": "1140", "addr:postcode": "10001", "addr:street": "Broadway", "amenity": "bar", "name": "Vin Sur Vingt", "phone": "+1-646-922-7700", "website": "https://vsvwinebars.com/"}}, {"type": "node", "id": 3958232658, "lat": 40.7435815, "lon": -73.9920821, "tags": {"addr:city": "New York", "addr:housenumber": "750", "addr:postcode": "10010", "addr:state": "NY", "addr:street": "6th Avenue", "amenity": "cafe", "branch": "24th & 6th", "brand": "Starbucks", "brand:wikidata": "Q37158", "cuisine": "coffee_shop", "drink:coffee": "yes", "internet_access": "yes", "name": "Starbucks", "official_name": "Starbucks Coffee", "opening_hours": "Mo-Th, Su 06:00-21:00; Fr 06:00-21:30; Sa 05:30-22:00", "phone": "+1 646-230-7208", "ref": "11203", "takeaway": "yes", "toilets": "yes", "toilets:access": "public", "website": "https://www.starbucks.com/store-locator/store/11203/24th-6th-750-6th-avenue-new-york-ny-100102716-us"}}, {"type": "node", "id": 3958246944, "lat": 40.7442363, "lon": -73.9903515, "tags": {"addr:city": "New York", "addr:housenumber": "30", "addr:postcode": "10010", "addr:state": "NY", "addr:street": "West 26th Street", "amenity": "disused", "level": "6", "name": "Mapzen", "office": "company", "smoking": "no", "website": "https://mapzen.com"}}, {"type": "node", "id": 3959756841, "lat": 40.7441556, "lon": -73.9895824, "tags": {"addr:city": "New York", "addr:housenumber": "17", "addr:postcode": "10010", "addr:state": "NY", "addr:street": "West 26th Street", "amenity": "restaurant", "cuisine": "american", "name": "Maysville", "phone": "+1 646-490-8240"}}, {"type": "node", "id": 3959756843, "lat": 40.7440098, "lon": -73.9891964, "tags": {"addr:city": "New York", "addr:housenumber": "9", "addr:postcode": "10010", "addr:state": "NY", "addr:street": "West 26th Street", "amenity": "bar", "name": "Toshi's Penthouse", "operator": "Flatiron Hotel", "phone": "+1-212-673-2354", "website": "http://toshispenthouse.com"}}, {"type": "node", "id": 3960166157, "lat": 40.7446682, "lon": -73.98756, "tags": {"addr:city": "New York", "addr:housenumber": "246", "addr:postcode": "10001", "addr:state": "NY", "addr:street": "5th Avenue", "amenity": "cafe", "branch": "Nomad", "brand": "Think Coffee", "brand:wikidata": "Q122209740", "cuisine": "coffee_shop", "drink:espresso": "yes", "name": "Think Coffee", "opening_hours": "Mo-Sa 07:00-19:00; Su 08:00-15:00", "outdoor_seating": "yes", "takeaway": "yes", "website": "https://thinkcoffee.com/"}}, {"type": "node", "id": 3960166158, "lat": 40.7448447, "lon": -73.9869413, "tags": {"amenity": "restaurant", "cuisine": "steak_house", "name": "Ben & Jack's Steakhouse"}}, {"type": "node", "id": 3960166159, "lat": 40.7445855, "lon": -73.9875896, "tags": {"addr:city": "New York", "addr:housenumber": "244", "addr:postcode": "10001", "addr:state": "NY", "addr:street": "5th Avenue", "amenity": "restaurant", "bar": "yes", "cuisine": "chinese", "name": "Nomad Tea Parlour", "was:name": "Whitey's Hardware & Paints", "was:shop": "hardware", "website": "https://www.nomadteaparlour.com/"}}, {"type": "node", "id": 3960166160, "lat": 40.7447575, "lon": -73.987006, "tags": {"addr:city": "New York", "addr:housenumber": "253", "addr:street": "Fifth Avenue", "amenity": "pub", "name": "John Doe Bar & Kitchen"}}, {"type": "node", "id": 3966939347, "lat": 40.744603, "lon": -73.9854712, "tags": {"amenity": "restaurant", "name": "Milleseme", "wheelchair": "no"}}, {"type": "node", "id": 3966939353, "lat": 40.7439872, "lon": -73.9858906, "tags": {"amenity": "cafe", "name": "Seven grams", "removed:name": "Exki", "wheelchair": "yes"}}, {"type": "node", "id": 3985008886, "lat": 40.7446132, "lon": -73.9859631}, {"type": "node", "id": 3985008887, "lat": 40.7446848, "lon": -73.9864241}, {"type": "node", "id": 4146376405, "lat": 40.7478213, "lon": -73.9878356, "tags": {"addr:city": "New York", "addr:housenumber": "1250", "addr:postcode": "10001", "addr:state": "NY", "addr:street": "Broadway", "amenity": "restaurant", "capacity": "300", "cocktails": "yes", "contact:email": "info@gaonnurinyc.com", "contact:facebook": "GAONNURINYC", "contact:instagram": "gaonnurinyc", "contact:phone": "+1 212-971-9045", "contact:website": "https://www.gaonnurinyc.com/", "cuisine": "korean", "drink:soju": "yes", "drink:wine": "yes", "level": "38", "name": "Gaonnuri", "name:ko": "\uac00\uc628\ub204\ub9ac", "opening_hours": "Mo-Th 17:30-23:30; Fr, Sa 17:00-24:00; Su 16:00-22:00", "reservation": "yes", "wheelchair": "yes"}}, {"type": "node", "id": 4186110812, "lat": 40.7476228, "lon": -73.9887459}, {"type": "node", "id": 4214275589, "lat": 40.7439412, "lon": -73.988134, "tags": {"addr:housenumber": "230", "addr:postcode": "10001", "addr:street": "5th Avenue", "alt_name": "Rooftop Bar", "amenity": "bar", "contact:facebook": "230FIFTHRooftop", "contact:instagram": "230fifthrooftop", "cuisine": "american", "email": "info@230-fifth.com", "internet_access": "wlan", "level": "20", "name": "230 Fifth", "name:en": "230 Fifth Rooftop Bar", "opening_hours": "Mo-Su 14:00-04:00", "phone": "+12122461000", "website": "https://230-fifth.com/"}}, {"type": "node", "id": 4365154093, "lat": 40.7444076, "lon": -73.9883231, "tags": {"addr:city": "New York", "addr:housenumber": "15", "addr:postcode": "10010", "addr:state": "NY", "addr:street": "West 27th Street", "amenity": "restaurant", "name": "Planta"}}, {"type": "node", "id": 4441702689, "lat": 40.7480793, "lon": -73.9892846, "tags": {"addr:city": "New York", "addr:housenumber": "875", "addr:postcode": "10001", "addr:state": "NY", "addr:street": "6th Avenue", "amenity": "cafe", "branch": "31st & 6th", "brand": "Starbucks", "brand:wikidata": "Q37158", "cuisine": "coffee_shop", "internet_access": "wlan", "name": "Starbucks", "official_name": "Starbucks Coffee", "opening_hours": "Mo-Th 05:30-22:00; Fr 05:30-22:30; Sa 06:00-21:30; Su 06:30-21:30", "phone": "+1 212-629-6540", "takeaway": "yes", "website": "https://www.starbucks.com/store-locator/store/14380/31st-6th-875-sixth-ave-new-york-ny-100013507-us"}}, {"type": "node", "id": 4454807339, "lat": 40.7465547, "lon": -73.9854766, "tags": {"addr:city": "New York", "addr:housenumber": "303", "addr:postcode": "10016", "addr:state": "NY", "addr:street": "5th Avenue", "addr:unit": "1807", "branch": "Midtown", "brand": "KidsThrive NYC", "name": "KidsThrive NYC", "office": "educational_institution", "phone": "+1 212-685-3266", "website": "https://www.kidsthrivenyc.com/"}}, {"type": "node", "id": 4461697890, "lat": 40.7450031, "lon": -73.9873381, "tags": {"addr:postcode": "10001", "amenity": "restaurant", "cuisine": "seafood", "name": "L & W Oyster Company"}}, {"type": "node", "id": 4461699892, "lat": 40.7443707, "lon": -73.98779, "tags": {"addr:housenumber": "236", "addr:postcode": "10001", "addr:street": "5th Avenue", "amenity": "restaurant", "cuisine": "mediterranean", "name": "ilili"}}, {"type": "node", "id": 4480292845, "lat": 40.7444333, "lon": -73.9902995, "tags": {"addr:city": "New York", "addr:housenumber": "35", "addr:postcode": "10010", "addr:state": "NY", "addr:street": "West 26th Street", "amenity": "restaurant", "cuisine": "japanese", "name": "Maui Onion", "phone": "+1 201 548 4388", "website": "http://www.mauionion.org/"}}, {"type": "node", "id": 4492683386, "lat": 40.7428233, "lon": -73.9921754, "tags": {"addr:city": "New York", "addr:housenumber": "69", "addr:postcode": "10010", "addr:state": "NY", "addr:street": "West 23rd Street", "amenity": "bar", "ele": "2", "name": "The Storehouse", "opening_hours": "Mo-Su 11:00-04:00", "phone": "+1 212 243 8898", "smoking": "no", "website": "https://www.thestorehousenyc.com/"}}, {"type": "node", "id": 4503167568, "lat": 40.7474399, "lon": -73.9864528, "tags": {"addr:city": "New York", "addr:housenumber": "12", "addr:postcode": "10001", "addr:state": "NY", "addr:street": "West 32nd Street", "amenity": "restaurant", "contact:facebook": "https://www.facebook.com/pages/Woorjip/101885859904987", "cuisine": "korean", "delivery": "no", "drink:beer": "yes", "email": "info@woorijip32.com", "fax": "+1 212-244-4726", "level": "0", "name": "Woorijip", "opening_hours": "Mo-We 09:30-21:00; Fr-Su 09:30-22:00", "phone": "+1 212-244-1115", "self_service": "yes", "smoking": "no", "takeaway": "yes", "website": "http://woorijip32.com/"}}, {"type": "node", "id": 4509430011, "lat": 40.7438616, "lon": -73.9894745, "tags": {"addr:city": "New York", "addr:housenumber": "1133", "addr:postcode": "10010", "addr:state": "NY", "addr:street": "Broadway", "amenity": "restaurant", "cuisine": "indian", "delivery": "no", "name": "INDAY", "opening_hours": "Mo-Su 11:00-21:00", "phone": "+1 917 521 5012", "smoking": "no", "takeaway": "yes", "website": "http://indaynyc.com/"}}, {"type": "node", "id": 4509434073, "lat": 40.7437112, "lon": -73.9892129, "tags": {"addr:city": "New York", "addr:housenumber": "1133", "addr:postcode": "10010", "addr:state": "NY", "addr:street": "Broadway", "amenity": "restaurant", "cuisine": "italian", "delivery": "yes", "name": "La Pecora Bianca", "phone": "+1-212-498-9696", "smoking": "no", "takeaway": "no", "website": "https://www.lapecorabianca.com/location/nomad/"}}, {"type": "node", "id": 4552992889, "lat": 40.7442427, "lon": -73.9887217, "tags": {"addr:housenumber": "1150", "addr:postcode": "10001", "addr:street": "Broadway", "amenity": "restaurant", "bar": "yes", "cuisine": "american", "delivery": "yes", "name": "The Smith", "phone": "+1-212-685-4500", "takeaway": "yes", "website": "https://thesmithrestaurant.com/location/nomad/"}}, {"type": "node", "id": 4564273493, "lat": 40.7436151, "lon": -73.9863949, "tags": {"addr:city": "New York", "addr:housenumber": "21", "addr:postcode": "10016", "addr:state": "NY", "addr:street": "East 27th Street", "amenity": "cafe", "cuisine": "coffee_shop", "drink:beer": "yes", "email": "27thstreet@birchcoffee.com", "internet_access": "no", "name": "Birch Coffee", "opening_hours": "Mo-Fr 07:00-20:00; Sa-Su 08:00-20:00", "phone": "+1 212-686-1444", "smoking": "no", "website": "http://birchcoffee.com/locations/flatiron/"}}, {"type": "node", "id": 4587458727, "lat": 40.743289, "lon": -73.9885756, "tags": {"addr:city": "New York", "addr:housenumber": "210", "addr:postcode": "10010", "addr:state": "NY", "addr:street": "5th Avenue", "amenity": "restaurant", "brand": "Wagamama", "brand:wikidata": "Q503715", "cuisine": "asian", "delivery": "no", "name": "Wagamama", "opening_hours": "Mo-Th 11:00-23:00; Fr 11:00-00:00; Sa 10:00-00:00; Su 10:00-23:00", "outdoor_seating": "no", "phone": "+1-212-920-6233", "smoking": "no", "takeaway": "no", "website": "https://www.wagamama.us/"}}, {"type": "node", "id": 4591231254, "lat": 40.7452909, "lon": -73.9903934, "tags": {"addr:city": "New York", "addr:housenumber": "55", "addr:postcode": "10001", "addr:state": "NY", "addr:street": "West 27th Street", "amenity": "restaurant", "cuisine": "new_american", "name": "Mulberry & Vine", "opening_hours": "Mo-Th 11:00-21:00; Fr-Sa 11:00-20:00", "outdoor_seating": "no", "phone": "+1 212 252 8468", "smoking": "no", "takeaway": "yes", "website": "https://www.mulberryandvine.com/"}}, {"type": "node", "id": 4638395922, "lat": 40.7431207, "lon": -73.9909146, "tags": {"addr:city": "New York", "addr:housenumber": "27", "addr:postcode": "10010", "addr:state": "NY", "addr:street": "West 24th Street", "amenity": "restaurant", "cuisine": "indian", "delivery": "no", "internet_access": "wlan", "name": "Junoon", "opening_hours": "Su-Th 12:00-22:30; Fr 12:00-23:30; Sa 13:00-23:30", "outdoor_seating": "no", "phone": "+1-212-490-2100", "smoking": "no", "takeaway": "no", "website": "http://newyork.junoonrestaurants.com/", "wheelchair": "yes"}}, {"type": "node", "id": 4714345894, "lat": 40.7476739, "lon": -73.986996, "tags": {"addr:housenumber": "28", "addr:postcode": "10001", "addr:street": "West 32nd Street", "amenity": "restaurant", "cuisine": "japanese", "drink:sake": "yes", "drink:soju": "yes", "level": "0", "name": "Hana Michi", "opening_hours": "Tu 12:00-23:00; We-Fr 12:00-24:00; Sa 14:00-02:00; Su 14:00-22:30"}}, {"type": "node", "id": 4875112182, "lat": 40.7474989, "lon": -73.9869456, "tags": {"addr:housenumber": "22", "addr:level": "6", "addr:postcode": "10001", "addr:street": "West 32nd Street", "amenity": "bar", "contact:email": "reservations@karaokecitynyc.com", "contact:facebook": "karaokecitynyc", "contact:instagram": "KARAOKECITYNYC", "contact:phone": "+1 646-791-8318", "contact:website": "http://www.karaokecitynyc.com/", "name": "Karaoke City", "opening_hours": "13:00-04:00", "reservation": "yes"}}, {"type": "node", "id": 4875126273, "lat": 40.7469708, "lon": -73.9853055, "tags": {"addr:floor": "2", "addr:housenumber": "315", "addr:street": "5th Avenue", "amenity": "cafe", "name": "Ginseng Museum Cafe", "opening_hours": "Su-We 17:00-02:00; Th 17:00-03:00; Fr-Sa 17:00-04:00"}}, {"type": "node", "id": 4875134692, "lat": 40.7472064, "lon": -73.986396, "tags": {"access": "yes", "addr:floor": "17", "addr:housenumber": "6", "addr:postcode": "10001", "addr:street": "West 32nd Street", "amenity": "bar", "cocktails": "yes", "contact:email": "cloudsocialnyc@gmail.com", "contact:facebook": "https://www.facebook.com/617005171742589", "contact:instagram": "https://www.instagram.com/cloudsocialnyc/", "contact:phone": "+1-212-904-1092", "contact:twitter": "https://www.twitter.com/CloudSocialNYC", "contact:website": "https://cloudsocialnyc.com", "description": "rooftop bar of the Nyma Hotel", "drink:beer": "draught", "drink:liquor": "yes", "drink:wine": "yes", "happy_hours": "15:00-19:00", "location": "roof", "name": "Cloud Social", "opening_hours": "Mo-Su 15:00-24:00", "outdoor_seating": "only", "reservation": "yes", "smoking": "yes", "toilets": "yes", "toilets:unisex": "yes", "wheelchair": "yes"}}, {"type": "node", "id": 5057454028, "lat": 40.7452574, "lon": -73.9903235, "tags": {"addr:housenumber": "49", "addr:street": "West 27th Street", "name": "Code Academy HQ", "office": "it"}}, {"type": "node", "id": 5075011630, "lat": 40.7448905, "lon": -73.9885998, "tags": {"amenity": "restaurant", "cuisine": "fine_dining", "name": "Nomad", "opening_hours": "Mo-Su 09:00-22:00", "phone": "+1-347-472-5660", "website": "https://www.thenomadhotel.com/new-york/dining"}}, {"type": "node", "id": 5193872436, "lat": 40.7459976, "lon": -73.9881746, "tags": {"amenity": "restaurant", "name": "The Breslin", "wheelchair": "limited"}}, {"type": "node", "id": 5242330303, "lat": 40.747407, "lon": -73.9863928, "tags": {"addr:housenumber": "10", "addr:postcode": "10001", "addr:street": "West 32nd Street", "amenity": "restaurant", "contact:email": "info@misskoreabbq.com", "contact:facebook": "miss KOREA BBQ", "contact:instagram": "misskoreabbq", "contact:phone": "+1 212-594-4963", "contact:twitter": "misskoreabbq", "contact:website": "https://www.misskoreabbq.com", "cuisine": "korean", "delivery": "10:00-21:00", "drink:beer": "yes", "drink:sake": "yes", "drink:soju": "yes", "level": "0;1;2", "name": "missKOREA BBQ", "opening_hours": "10:00-21:00", "reservation": "yes", "takeaway": "yes"}}, {"type": "node", "id": 5242331829, "lat": 40.7475599, "lon": -73.9869049, "tags": {"addr:city": "New York", "addr:housenumber": "22", "addr:postcode": "10001", "addr:state": "NY", "addr:street": "West 32nd Street", "amenity": "restaurant", "cocktails": "yes", "contact:email": "jongrobbq@gmail.com", "contact:facebook": "jongrobbqny", "contact:instagram": "jongrobbq_nyc", "contact:phone": "+1 212-473-2233", "contact:website": "http://www.jongrobbqny.com/", "cuisine": "korean", "delivery": "yes", "drink:beer": "yes", "drink:soju": "yes", "level": "1", "name": "Jongro BBQ", "opening_hours": "Mo-Th, Su 11:30-24:00; Fr, Sa 11:30-01:00", "opening_hours:covid19": "12:00-22:00", "reservation": "yes", "takeaway": "yes"}}, {"type": "node", "id": 5393321622, "lat": 40.7477356, "lon": -73.9863789, "tags": {"addr:housenumber": "15", "addr:postcode": "10001", "addr:street": "West 32nd Street", "amenity": "bar", "cocktails": "yes", "cuisine": "korean", "drink:beer": "draught; bottled", "drink:soju": "yes", "level": "1", "name": "Pocha 32", "opening_hours": "Su-Th 17:00-02:00; Fr, Sa 17:00-03:00", "payment:visa": "no", "phone": "+1 212-279-1876"}}, {"type": "node", "id": 5393341922, "lat": 40.7476232, "lon": -73.9861377, "tags": {"addr:housenumber": "9", "addr:postcode": "10001", "addr:street": "West 32nd Street", "amenity": "restaurant", "branch": "NY", "cuisine": "korean", "delivery": "07:30-22:30", "email": "contact@gammeeok.com", "level": "1", "name": "Gammeeok", "opening_hours": "24/7", "opening_hours:covid19": "09:00-22:00", "phone": "+1 212-868-1180", "takeaway": "yes", "website": "https://www.gammeeok.com"}}, {"type": "node", "id": 5398461822, "lat": 40.7470115, "lon": -73.985841, "tags": {"addr:city": "New York", "addr:housenumber": "312", "addr:postcode": "10001", "addr:state": "NY", "addr:street": "5th Avenue", "amenity": "restaurant", "cuisine": "korean;chinese", "email": "plumpyduck@joomakbanjum.com", "level": "0", "name": "Joomak Banjum", "opening_hours": "Tu-Th 17:00-21:00; Fr, Sa 17:00-21:30", "phone": "+1 212-268-7888", "reservation": "yes", "website": "https://www.joomakbanjum.com/"}}, {"type": "node", "id": 5400492993, "lat": 40.7466178, "lon": -73.9921722, "tags": {"addr:housenumber": "136", "addr:street": "West 28th Street", "amenity": "restaurant", "cuisine": "japanese", "name": "Ajisen Ramen", "phone": "+1-646-638-0888"}}, {"type": "node", "id": 5539498695, "lat": 40.7446434, "lon": -73.9876968, "tags": {"addr:city": "New York", "addr:housenumber": "244", "addr:postcode": "10001", "addr:state": "NY", "addr:street": "5th Avenue", "addr:unit": "2307", "name": "In Order to Succeed", "office": "moving_company", "opening_hours": "Mo-Su 07:00-20:00", "phone": "+1-212-721-2222", "website": "https://inordertosucceed.com/"}}, {"type": "node", "id": 5590346824, "lat": 40.744893, "lon": -73.9853026, "tags": {"addr:housenumber": "102", "addr:street": "Madison Avenue", "level": "7", "name": "Mondo", "office": "employment_agency", "opening_hours": "Mo-Fr 07:00-19:00", "phone": "+1-212-257-5111", "website": "https://www.mondo.com/"}}, {"type": "node", "id": 5612407421, "lat": 40.7481126, "lon": -73.9911219, "tags": {"amenity": "bar", "name": "Deweys pub"}}, {"type": "node", "id": 5699062157, "lat": 40.7433829, "lon": -73.9914604, "tags": {"addr:city": "New York", "addr:housenumber": "49", "addr:postcode": "10010", "addr:state": "NY", "addr:street": "West 24th Street", "addr:unit": "8th Floor", "contact:facebook": "https://www.facebook.com/nycsportfishingcharters/", "name": "NYC Sportfishing Charters", "office": "company", "phone": "+1-201-388-1963", "website": "https://www.nycsportfishingcharters.com/"}}, {"type": "node", "id": 5734944621, "lat": 40.7452186, "lon": -73.9902413, "tags": {"addr:housenumber": "49", "addr:street": "West 27th Street", "amenity": "cafe", "cuisine": "coffee_shop", "indoor_seating": "yes", "name": "Patent Coffee", "outdoor_seating": "no"}}, {"type": "node", "id": 5737544261, "lat": 40.7446279, "lon": -73.9876826, "tags": {"addr:city": "New York", "addr:housenumber": "244", "addr:postcode": "10001", "addr:state": "NY", "addr:street": "5th Avenue", "addr:unit": "2778", "email": "Info@corpwellness.org", "name": "Corporate Wellness solutions", "office": "company", "phone": "+1-212-537-4421", "website": "https://www.corpwellness.org/"}}, {"type": "node", "id": 5806583255, "lat": 40.7452323, "lon": -73.9902152, "tags": {"amenity": "bar", "indoor_seating": "yes", "name": "Patent Pending", "outdoor_seating": "no"}}, {"type": "node", "id": 5815748398, "lat": 40.7472543, "lon": -73.9918207, "tags": {"addr:housenumber": "138", "addr:street": "West 29th Street", "amenity": "bar", "cocktails": "yes", "drink:beer": "yes", "drink:liquor": "yes", "drink:wine": "yes", "name": "Pioneers Bar NYC", "opening_hours": "Su 13:00-01:00; Mo-Sa 13:00-02:00", "phone": "+1-212-714-2222", "sport": "billiards;pinball", "toilets": "yes", "website": "https://www.pioneersbar.com/", "wheelchair": "yes"}}, {"type": "node", "id": 5849801770, "lat": 40.7456636, "lon": -73.9884874, "tags": {"addr:housenumber": "1188", "addr:postcode": "10001", "addr:street": "Broadway", "amenity": "cafe", "branch": "Nomad", "cuisine": "bagel", "name": "Black Seed Bagels", "opening_hours": "Mo-Su 07:00-17:00", "website": "https://www.blackseedbagels.com"}}, {"type": "node", "id": 5871106370, "lat": 40.7459321, "lon": -73.9878023, "tags": {"addr:housenumber": "13", "addr:street": "29th Street", "amenity": "restaurant", "name": "Chandni Restaurant", "phone": "+1-212-686-4456", "website": "http://chandnirestaurantny.com"}}, {"type": "node", "id": 5889475672, "lat": 40.7481643, "lon": -73.9862577, "tags": {"addr:housenumber": "18", "addr:postcode": "10001", "addr:street": "West 33rd Street", "amenity": "pub", "cuisine": "pub", "name": "Sir John's NY", "opening_hours": "Mo-We 11:00-22:00", "phone": "+1-646-308-1336"}}, {"type": "node", "id": 5931200304, "lat": 40.7458789, "lon": -73.9868692, "tags": {"addr:city": "New York", "addr:housenumber": "276", "addr:postcode": "10001", "addr:state": "NY", "addr:street": "5th Avenue", "addr:unit": "Suite 704", "description": "Best Case Leads builds and manages a targeted attorney lead generation campaign that brings relevant, affordable leads right to your law firm.\n", "name": "Best Case Leads", "office": "company", "opening_hours": "Mo-Fr 09:00-18:00", "phone": "+1-877-795-2953", "website": "https://bestcaseleads.com"}}, {"type": "node", "id": 6006276988, "lat": 40.7433245, "lon": -73.9901642, "tags": {"amenity": "cafe", "name": "Maman"}}, {"type": "node", "id": 6064400688, "lat": 40.7480981, "lon": -73.9874846, "tags": {"addr:housenumber": "43", "addr:street": "West 32nd Street", "amenity": "restaurant", "branch": "Lab", "brand": "UDON", "brand:wikidata": "Q115679798", "cocktails": "yes", "contact:instagram": "udonlab_nyc", "contact:phone": "+1 646-838-5338", "contact:website": "http://udonlab.com", "cuisine": "japanese", "drink:beer": "draught; bottled", "drink:sake": "yes", "drink:soju": "yes", "drink:wine": "served", "level": "0", "name": "UDON", "opening_hours": "Su-Th 11:00-23:00; Fr, Sa 11:00-02:00"}}, {"type": "node", "id": 6064439285, "lat": 40.7477457, "lon": -73.9871706, "tags": {"addr:city": "New York", "addr:housenumber": "32", "addr:postcode": "10001", "addr:state": "NY", "addr:street": "West 32nd Street", "amenity": "restaurant", "capacity": "140", "cocktails": "yes", "contact:facebook": "https://www.facebook.com/thekunjip/", "contact:instagram": "https://www.instagram.com/thekunjipnyc/", "cuisine": "korean", "drink:beer": "yes", "drink:soju": "yes", "drink:wine": "yes", "level": "0;1", "name": "The Kunjip", "name:ko": "\ub354\ud070\uc9d1", "opening_hours": "Su 00:00-03:00,06:30-03:00; Mo,Tu 06:30-03:00; We 06:30-24:00; Th-Sa 00:00-24:00", "payment:american_express": "yes", "payment:cash": "yes", "payment:mastercard": "yes", "payment:visa": "yes", "phone": "+1 212-564-8238", "reservation": "yes", "toilets": "yes", "website": "https://www.kunjip.com", "wheelchair": "yes"}}, {"type": "node", "id": 6064439585, "lat": 40.7477885, "lon": -73.9867366, "tags": {"addr:housenumber": "23", "addr:postcode": "10001", "addr:street": "West 32nd Street", "amenity": "restaurant", "contact:facebook": "https://www.facebook.com/pages/New-Wonjo/1488813761190378", "cuisine": "korean", "delivery": "yes", "drink:tea": "yes", "drink:wine": "yes", "email": "newwonjo@gmail.com", "fax": "+1 212-695-2084", "level": "0;1", "name": "New Wonjo", "name:ko": "\ub274\uc6d0\uc870", "opening_hours": "24/7", "phone": "+1 212-695-5815", "reservation": "yes", "takeaway": "yes", "toilets": "yes", "website": "https://newwonjo.com/", "wheelchair": "limited"}}, {"type": "node", "id": 6210354194, "lat": 40.7424367, "lon": -73.9887211}, {"type": "node", "id": 6228150877, "lat": 40.748044, "lon": -73.9873353, "tags": {"addr:housenumber": "39", "addr:street": "West 32nd Street", "amenity": "cafe", "branch": "Korean Town", "brand": "caff\u00e9 bene", "brand:wikidata": "Q5017149", "cuisine": "dessert", "delivery": "yes", "drink": "espresso", "drink:coffee": "yes", "drink:tea": "yes", "level": "0", "name": "caff\u00e9 bene", "opening_hours": "09:00-21:00", "phone": "+1 917-475-1432", "takeaway": "yes"}}, {"type": "node", "id": 6231238816, "lat": 40.7473548, "lon": -73.9862282, "tags": {"addr:housenumber": "6", "addr:postcode": "10001", "addr:street": "West 32nd Street", "amenity": "cafe", "branch": "32nd & 5th", "brand": "Paris Baguette", "brand:wikidata": "Q62605260", "delivery": "yes", "level": "0", "name": "Paris Baguette", "opening_hours": "Su-Th 07:00-22:00; Fr, Sa 07:00-23:00", "phone": "+1 212-244-0404", "shop": "bakery", "takeaway": "yes"}}, {"type": "node", "id": 6231480917, "lat": 40.74687, "lon": -73.9864707, "tags": {"addr:housenumber": "5", "addr:postcode": "10001", "addr:street": "West 31st Street", "amenity": "pub", "cocktails": "yes", "contact:email": "info@osamil.com", "contact:facebook": "osamilnyc", "contact:instagram": "osamilnyc", "contact:pinterest": "osamil", "contact:twitter": "OsamilNYC", "cuisine": "korean;gastropub", "drink:beer": "yes", "drink:soju": "yes", "drink:wine": "yes", "happy_hours": "16:00-19:00", "name": "Osamil", "name:ko": "\uc624\uc0bc\uc77c", "opening_hours": "Mo-Th 16:00-02:00; Fr 16:00-03:00; Sa 11:00-02:00; Su 11:00-23:00", "opening_hours:covid19": "Tu-Th 17:00-23:00; Fr, Sa 17:00-24:00", "phone": "+1 212-300-4713", "reservation": "yes", "takeaway:covid19": "Tu-Sa 17:00-24:00", "website": "https://www.osamil.com"}}, {"type": "node", "id": 6233604762, "lat": 40.7476372, "lon": -73.98878, "tags": {"access": "yes", "addr:housenumber": "54", "addr:street": "West 31st Street", "door": "hinged", "entrance": "main", "level": "0", "wheelchair": "yes"}}, {"type": "node", "id": 6233604763, "lat": 40.7476264, "lon": -73.9887544, "tags": {"door": "hinged", "entrance": "yes", "level": "0"}}, {"type": "node", "id": 6233604764, "lat": 40.7476727, "lon": -73.9888645, "tags": {"door": "hinged", "entrance": "yes", "level": "0"}}, {"type": "node", "id": 6234654089, "lat": 40.7477867, "lon": -73.9874231, "tags": {"addr:city": "New York", "addr:housenumber": "38", "addr:postcode": "10001", "addr:state": "NY", "addr:street": "West 32nd Street", "amenity": "bar", "cocktails": "yes", "contact:instagram": "https://www.instagram.com/5barkaraoke", "drink:beer": "yes", "drink:soju": "yes", "drink:wine": "yes", "happy_hours": "Su-Th 14:00-20:00", "karaoke": "yes", "level": "4", "name": "5 Bar Karaoke Lounge", "opening_hours": "Su-Th 14:00-03:00; Fr,Sa 14:00-04:00", "phone": "+1 212-594-6644", "website": "https://www.5barkaraoke.com"}}, {"type": "node", "id": 6243560187, "lat": 40.7427025, "lon": -73.988596}, {"type": "node", "id": 6259767847, "lat": 40.7474567, "lon": -73.9865203, "tags": {"addr:housenumber": "12", "addr:postcode": "10001", "addr:street": "West 32nd Street", "amenity": "cafe", "branch": "Koreatown", "brand": "Gong Cha", "brand:wikidata": "Q5581670", "brand:zh": "\u8ca2\u8336", "cuisine": "bubble_tea", "int_name": "Gong Cha", "level": "0", "name": "Gong Cha", "name:zh": "\u8ca2\u8336", "opening_hours": "10:30-21:30", "phone": "+1 646-998-4362", "takeaway": "yes", "website": "http://www.gongchausa.com/new-york-koreatown-nyc/"}}, {"type": "node", "id": 6301117347, "lat": 40.7446318, "lon": -73.9877638, "tags": {"addr:city": "New York", "addr:housenumber": "244", "addr:postcode": "10001", "addr:state": "NY", "addr:street": "5th Avenue", "addr:unit": "2642", "name": "Beluga Labs", "office": "it", "opening_hours": "Mo-Fr 09:00-18:00", "phone": "+1-855-823-5842", "website": "https://belugalab.com"}}, {"type": "node", "id": 6342202604, "lat": 40.7429808, "lon": -73.9893406, "tags": {"addr:housenumber": "1115", "addr:postcode": "10010", "addr:street": "Broadway", "addr:unit": "12th Floor", "description": "life and carreer coaching", "email": "nyc@thenyclifecoach.com", "name": "The NYC Life Coach", "office": "company", "opening_hours": "Mo-Fr 10:00-20:00", "phone": "+1-646-943-9160", "website": "https://www.thenyclifecoach.com"}}, {"type": "node", "id": 6375303885, "lat": 40.7464637, "lon": -73.9909625, "tags": {"addr:street": "West 28th Street", "amenity": "bar", "name": "The Fleur Room", "website": "http://moxy-hotels.marriott.com/nyc/chelsea/the-fleur-room/"}}, {"type": "node", "id": 6424147876, "lat": 40.7475798, "lon": -73.9861702, "tags": {"addr:housenumber": "9", "addr:postcode": "10001", "addr:street": "West 32nd Street", "amenity": "restaurant", "cuisine": "korean", "level": "0", "name": "Five Senses", "opening_hours": "Mo-Th 11:00-21:00; Fr-Su 11:00-22:00", "phone": "+1 212-441-0005", "website": "fivesensesnyc.com"}}, {"type": "node", "id": 6461990216, "lat": 40.7443072, "lon": -73.9861386, "tags": {"addr:housenumber": "15", "addr:postcode": "10016", "addr:street": "East 28th Street", "amenity": "cafe", "cuisine": "breakfast;sandwich;coffee_shop", "drink:beer": "bottled", "drink:coffee": "yes", "drink:espresso": "yes", "drink:wine": "yes", "name": "Bourke Street Bakery", "opening_hours": "Mo-Su 07:00-20:00", "shop": "bakery"}}, {"type": "node", "id": 6611254398, "lat": 40.7462448, "lon": -73.9894965, "tags": {"amenity": "cafe", "cuisine": "coffee_shop", "drink:coffee": "yes", "drink:tea": "yes", "name": "Paper", "opening_hours": "Mo-Su 07:00-18:00"}}, {"type": "node", "id": 6611254401, "lat": 40.7456554, "lon": -73.9880474, "tags": {"amenity": "cafe", "brand": "Stumptown Coffee Roasters", "brand:wikidata": "Q2695932", "cuisine": "coffee_shop", "internet_access": "wlan", "internet_access:fee": "no", "level": "0", "name": "Stumptown Coffee Roasters", "outdoor_seating": "yes", "takeaway": "yes", "toilets": "no", "website": "https://www.stumptowncoffee.com/", "wheelchair": "yes"}}, {"type": "node", "id": 6892589495, "lat": 40.7466715, "lon": -73.9855078, "tags": {"addr:city": "New York", "addr:housenumber": "307", "addr:postcode": "10016", "addr:state": "NY", "addr:street": "5th Avenue", "addr:unit": "Floor 9", "email": "contact@carto.com", "name": "CARTO", "office": "company", "phone": "+1-917-463-3232", "website": "http://carto.com"}}, {"type": "node", "id": 6916949630, "lat": 40.7474576, "lon": -73.9917001, "tags": {"addr:housenumber": "143", "addr:street": "West 29th Street", "amenity": "cafe", "contact:email": "info@hanamizukiny.com", "cuisine": "japanese", "drink:beer": "yes", "drink:coffee": "yes", "drink:sake": "yes", "drink:tea": "yes", "drink:wine": "yes", "name": "Hanamizuki", "opening_hours": "Mo-Fr 11:00-21:00; Sa 11:00-18:00", "phone": "+1 212-965-5533", "website": "https://www.hanamizukiny.com/"}}, {"type": "node", "id": 7049483885, "lat": 40.7448615, "lon": -73.9882503, "tags": {"amenity": "bar", "name": "NoMad Bar"}}, {"type": "node", "id": 7079145390, "lat": 40.747835, "lon": -73.986847, "tags": {"addr:housenumber": "25", "addr:postcode": "10001", "addr:street": "West 32nd Street", "amenity": "restaurant", "contact:facebook": "https://www.facebook.com/bbqchickenktown", "contact:instagram": "https://www.instagram.com/bbqktownnyc", "cuisine": "korean;chimaek", "delivery": "yes", "drink:beer": "yes", "email": "gm@bbqktown.com", "name": "BB.Q Olive Chicken", "opening_hours": "Mo-Th 11:00-23:00; Fr, Sa 11:00-24:00", "payment:american_express": "yes", "payment:discover_card": "yes", "payment:mastercard": "yes", "payment:visa": "yes", "phone": "+1 212-967-8093", "takeaway": "yes", "website": "http://bbqktownnyc.com"}}, {"type": "node", "id": 7369844955, "lat": 40.7442688, "lon": -73.9891139, "tags": {"addr:housenumber": "1151", "addr:postcode": "10001", "addr:street": "Broadway", "amenity": "cafe", "cuisine": "juice", "name": "Dr. Smood", "phone": "+1-646-713-1380", "website": "https://www.drsmood.com"}}, {"type": "node", "id": 7369844956, "lat": 40.7442759, "lon": -73.9891769, "tags": {"addr:housenumber": "1151", "addr:postcode": "10001", "addr:street": "Broadway", "name": "Premier Equities", "office": "estate_agent", "phone": "+1-212-421-3634", "website": "https://premierequities.com/"}}, {"type": "node", "id": 7369844963, "lat": 40.7462694, "lon": -73.9883642, "tags": {"addr:housenumber": "1204", "addr:postcode": "10001", "addr:street": "Broadway", "name": "Luminary", "office": "yes", "phone": "+1-646-876-8680", "website": "https://www.luminary-nyc.com/", "wheelchair": "yes"}}, {"type": "node", "id": 8255733883, "lat": 40.7431387, "lon": -73.9871489, "tags": {"addr:city": "New York", "addr:housenumber": "19", "addr:postcode": "10010", "addr:state": "NY", "addr:street": "East 26th Street", "email": "jelliott@heavenlyharvst.org", "name": "Heavenly Harvst Foundation", "office": "association", "opening_hours": "Mo-Fr 09:00-17:00", "phone": "+1-646-448-0965", "website": "https://heavenlyharvst.org/"}}, {"type": "node", "id": 8268699406, "lat": 40.7414177, "lon": -73.9890108, "tags": {"barrier": "kerb", "kerb": "lowered"}}, {"type": "node", "id": 8268699407, "lat": 40.7414649, "lon": -73.9890345, "tags": {"barrier": "kerb", "kerb": "lowered"}}, {"type": "node", "id": 8268699408, "lat": 40.7417664, "lon": -73.988958, "tags": {"barrier": "kerb", "kerb": "lowered", "tactile_paving": "yes"}}, {"type": "node", "id": 8268734921, "lat": 40.7428499, "lon": -73.9885165, "tags": {"barrier": "kerb", "kerb": "lowered", "tactile_paving": "yes"}}, {"type": "node", "id": 8268734923, "lat": 40.7429173, "lon": -73.988475}, {"type": "node", "id": 8268734924, "lat": 40.74101, "lon": -73.9880426, "tags": {"barrier": "kerb", "kerb": "lowered", "tactile_paving": "yes"}}, {"type": "node", "id": 8268734939, "lat": 40.7410339, "lon": -73.9879619}, {"type": "node", "id": 8791888444, "lat": 40.7476872, "lon": -73.9864866, "tags": {"addr:housenumber": "17", "addr:street": "West 32nd Street", "amenity": "cafe", "cuisine": "ice_cream;korean", "email": "hello@bygracestreet.com", "indoor_seating": "yes", "name": "Grace Street", "opening_hours": "Su-Th 11:00-23:00; Fr, Sa 11:00-23:30", "outdoor_seating": "no", "phone": "+1 917-745-2125", "takeaway": "yes", "website": "https://www.bygracestreet.com"}}, {"type": "node", "id": 8838037168, "lat": 40.7445997, "lon": -73.9876982, "tags": {"addr:city": "New York", "addr:country": "US", "addr:housenumber": "244", "addr:postcode": "10001-7604", "addr:state": "NY", "addr:street": "5th Avenue", "addr:unit": "2111", "name": "IGRP Inc.", "office": "company", "website": "https://www.insigniagrp.com/"}}, {"type": "node", "id": 8988074194, "lat": 40.7465325, "lon": -73.986267, "tags": {"3d_printing": "habitat", "addr:city": "New York", "addr:housenumber": "298", "addr:postcode": "10001", "addr:state": "NY", "addr:street": "5th Avenue", "aerospace:product": "space_habitat", "company": "aerospace", "email": "contact@aispacefactory.com", "name": "AI SpaceFactory", "office": "company", "website": "https://www.aispacefactory.com"}}, {"type": "node", "id": 9035676817, "lat": 40.7476635, "lon": -73.9864189, "tags": {"addr:housenumber": "15", "addr:postcode": "10001", "addr:street": "West 32nd Street", "amenity": "cafe", "contact:email": "teamakersnyc@gmail.com", "contact:instagram": "teamakersnyc", "contact:phone": "+1 212-695-7575", "contact:website": "https://www.teamakersnyc.com", "drink:coffee": "no", "drink:tea": "yes", "food": "no", "level": "0", "name": "Tea Makers", "opening_hours": "Su-We 11:00-21:00; Th-Sa 11:00-22:00", "takeaway": "only", "wheelchair": "yes"}}, {"type": "node", "id": 9491020917, "lat": 40.7454468, "lon": -73.9865063, "tags": {"amenity": "restaurant", "cuisine": "asian", "name": "Hortus NYC"}}, {"type": "node", "id": 9508244826, "lat": 40.747815, "lon": -73.9867152, "tags": {"addr:city": "New York", "addr:housenumber": "32", "addr:postcode": "10001", "addr:state": "NY", "addr:street": "West 32nd Street", "addr:unit": "Floor 3", "amenity": "restaurant", "contact:email": "info@anytimenyc.com", "contact:facebook": "AnytimeNYC", "contact:instagram": "anytimenyc", "contact:phone": "+1 646-669-7733", "contact:website": "https://www.anytimenyc.com/", "cuisine": "korean", "delivery": "yes", "level": "2", "name": "Anytime NYC", "takeaway": "yes"}}, {"type": "node", "id": 9644541103, "lat": 40.7479431, "lon": -73.987102, "tags": {"addr:housenumber": "33", "addr:postcode": "10001", "addr:street": "West 32nd Street", "amenity": "cafe", "brand": "machi machi", "brand:en": "machi machi", "brand:wikidata": "Q114828290", "brand:zh": "\u9ea5\u5409", "contact:instagram": "machimachi_us", "contact:website": "https://machimachi.us", "cuisine": "bubble_tea", "delivery": "yes", "level": "0", "name": "Machi machi", "opening_hours": "Su-Th 11:00-22:00; Fr, Sa 11:00-23:00", "takeaway": "yes"}}, {"type": "node", "id": 9644541105, "lat": 40.7480141, "lon": -73.9872738, "tags": {"addr:housenumber": "37", "addr:postcode": "10001", "addr:street": "West 32nd Street", "amenity": "restaurant", "contact:email": "info@antoyabbq.com", "contact:facebook": "Antoyabbq", "contact:instagram": "antoyqbbq", "contact:phone": "+1 215-695-3131", "contact:website": "https://antoyabbq.com", "cuisine": "korean", "delivery": "yes", "level": "0", "name": "Antoya Korean BBQ", "opening_hours": "Su-Th 11:30-22:45; Fr, Sa 11:30-02:45", "reservation": "yes", "takeaway": "yes"}}, {"type": "node", "id": 9644596253, "lat": 40.7473128, "lon": -73.9861372, "tags": {"amenity": "restaurant", "cuisine": "korean;gimbap;sushi", "delivery": "no", "level": "0", "name": "E-MO", "opening_hours": "Mo-Sa 09:00-19:00", "payment:cash": "only", "phone": "+1 212-594-1466", "takeaway": "only"}}, {"type": "node", "id": 9644596254, "lat": 40.7472762, "lon": -73.9861356, "tags": {"addr:housenumber": "2", "addr:postcode": "10001", "addr:street": "West 32nd Street", "amenity": "restaurant", "contact:instagram": "hongchencheonnyc", "contact:phone": "+1 212-695-7272", "cuisine": "korean", "delivery": "yes", "level": "1", "name": "Hong Chun Cheon Dak Galbi", "opening_hours": "11:30-21:30", "takeaway": "yes"}}, {"type": "node", "id": 9644596255, "lat": 40.7472788, "lon": -73.9860623, "tags": {"addr:housenumber": "2", "addr:postcode": "10001", "addr:street": "West 32nd Street", "amenity": "restaurant", "cuisine": "japanese;ramen", "delivery": "yes", "email": "kushikushiyaki@gmail.com", "level": "0", "name": "Kushi Kushi Yaki", "opening_hours": "Su-Th 12:00-21:30; Th-Sa 12:00-23:00", "phone": "+1 212-279-3075", "reservation": "yes", "takeaway": "yes", "website": "https://www.kushikushiyaki.com"}}, {"type": "node", "id": 9644596256, "lat": 40.7472957, "lon": -73.9860976, "tags": {"amenity": "restaurant", "contact:facebook": "KokuRamenNYC", "contact:instagram": "kokuramennyc", "contact:phone": "+1 212-643-8488", "contact:website": "https://www.koku-ramen.com", "cuisine": "japanese;ramen", "delivery": "yes", "diet:vegan": "yes", "level": "0", "name": "Koku Ramen", "opening_hours": "11:30-19:30", "takeaway": "yes"}}, {"type": "node", "id": 9644596257, "lat": 40.747333, "lon": -73.9864401, "tags": {"addr:housenumber": "10", "addr:postcode": "10001", "addr:street": "West 32nd Street", "amenity": "restaurant", "cocktails": "yes", "cuisine": "korean", "delivery": "Su-We 17:00-24:00; Th-Sa 17:00-01:00", "email": "info@muinyny.com", "level": "4", "name": "MUI", "opening_hours": "Su-We 15:00-02:00; Th-Sa 17:00-04:00", "phone": "+1 212-244-1900", "reservation": "yes", "website": "https://www.nymui.com"}}, {"type": "node", "id": 9644596258, "lat": 40.7473223, "lon": -73.9861681, "tags": {"addr:housenumber": "2", "addr:postcode": "10001", "addr:street": "West 32nd Street", "amenity": "restaurant", "branch": "Manhattan", "check_date": "2025-06-22", "contact:instagram": "abikocurry", "contact:phone": "+1 212-695-0888", "contact:website": "https://www.abiko-curry.com", "cuisine": "japanese", "delivery": "yes", "drink:beer": "yes", "level": "0", "name": "Abiko Curry", "opening_hours": "11:00-21:00", "payment:cash": "yes", "payment:credit_cards": "yes", "payment:debit_cards": "yes", "takeaway": "yes"}}, {"type": "node", "id": 9644617681, "lat": 40.7476554, "lon": -73.9870454, "tags": {"addr:housenumber": "28", "addr:postcode": "10001", "addr:street": "West 32nd Street", "amenity": "restaurant", "cocktails": "yes", "cuisine": "korean;gastropub", "drink:soju": "yes", "facebook": "itaewonnyc32", "level": "1", "name": "Itaewon Pocha", "opening_hours": "Tu-Th 17:00-02:00; Fr, Sa 17:00-04:00; Su 14:00-02:00", "phone": "+1 212-967-2228", "reservation": "yes", "website": "http://www.itaewongastropub.com"}}, {"type": "node", "id": 9793798565, "lat": 40.7466986, "lon": -73.9855994, "tags": {"addr:city": "New York", "addr:housenumber": "307", "addr:postcode": "10016", "addr:state": "NY", "addr:street": "5th Avenue", "amenity": "restaurant", "cuisine": "korean;barbecue", "diet:meat": "yes", "name": "Let's Meat", "phone": "+12128890089", "website": "https://www.letsmeatnyc.com/"}}, {"type": "node", "id": 9864762117, "lat": 40.7479801, "lon": -73.9900333, "tags": {"addr:city": "New York", "addr:housenumber": "855", "addr:postcode": "10001", "addr:state": "NY", "addr:street": "6th Avenue", "brand": "Nike", "brand:wikidata": "Q483915", "name": "Nike New York Headquarters", "office": "company", "start_date": "2017", "website": "https://jobs.nike.com/nyc"}}, {"type": "node", "id": 9882448221, "lat": 40.7430473, "lon": -73.9870659, "tags": {"addr:city": "New York", "addr:housenumber": "19", "addr:postcode": "10010", "addr:state": "NY", "addr:street": "East 26th Street", "amenity": "restaurant", "cuisine": "american", "email": "info@blackbarnrestaurant.com", "name": "BLACKBARN Restaurant", "opening_hours": "Mo-Sa 11:30-21:30; Su 11:00-15:00", "phone": "+1 212-265-5959", "website": "https://blackbarnrestaurant.com/"}}, {"type": "node", "id": 9906273052, "lat": 40.7456123, "lon": -73.988821, "tags": {"addr:housenumber": "1185", "addr:postcode": "10001", "addr:street": "Broadway", "amenity": "restaurant", "name": "Zaytinya", "website": "https://www.zaytinya.com/"}}, {"type": "node", "id": 9910687143, "lat": 40.7446943, "lon": -73.9862588, "tags": {"entrance": "yes"}}, {"type": "node", "id": 9910687165, "lat": 40.7446444, "lon": -73.9861381, "tags": {"entrance": "yes"}}, {"type": "node", "id": 10000674926, "lat": 40.7448287, "lon": -73.9890064, "tags": {"addr:city": "New York", "addr:housenumber": "1165", "addr:postcode": "10001", "addr:state": "NY", "addr:street": "Broadway", "amenity": "restaurant", "diet:gluten_free": "yes", "diet:vegan": "yes", "email": "max@scenstudio.com", "name": "Scen", "opening_hours": "Mo-Fr 11:00-19:00", "phone": "+1-646-649-5658", "website": "https://www.scenstudio.com"}}, {"type": "node", "id": 10170994751, "lat": 40.7451293, "lon": -73.9904976}, {"type": "node", "id": 10179045297, "lat": 40.7410133, "lon": -73.9879858, "tags": {"barrier": "kerb", "kerb": "lowered", "tactile_paving": "yes"}}, {"type": "node", "id": 10179045314, "lat": 40.7410064, "lon": -73.9880035}, {"type": "node", "id": 10179045315, "lat": 40.7410051, "lon": -73.9880223}, {"type": "node", "id": 10179045316, "lat": 40.7414471, "lon": -73.9890365}, {"type": "node", "id": 10179045317, "lat": 40.7414242, "lon": -73.9890232}, {"type": "node", "id": 10179045318, "lat": 40.7414343, "lon": -73.9890344}, {"type": "node", "id": 10179045334, "lat": 40.7419324, "lon": -73.9889115}, {"type": "node", "id": 10179045355, "lat": 40.7420299, "lon": -73.9888805}, {"type": "node", "id": 10179045356, "lat": 40.7421768, "lon": -73.9888308}, {"type": "node", "id": 10179045357, "lat": 40.742337, "lon": -73.9887659}, {"type": "node", "id": 10179045358, "lat": 40.742542, "lon": -73.9886727}, {"type": "node", "id": 10179045359, "lat": 40.7427727, "lon": -73.9885603}, {"type": "node", "id": 10179045361, "lat": 40.7427208, "lon": -73.9885867, "tags": {"barrier": "kerb", "kerb": "lowered", "tactile_paving": "no"}}, {"type": "node", "id": 10179045362, "lat": 40.7432908, "lon": -73.9882028}, {"type": "node", "id": 10179045363, "lat": 40.7433516, "lon": -73.9881608}, {"type": "node", "id": 10179045364, "lat": 40.7433607, "lon": -73.9881503}, {"type": "node", "id": 10179045365, "lat": 40.7433676, "lon": -73.9881347}, {"type": "node", "id": 10179045366, "lat": 40.7433684, "lon": -73.9881153, "tags": {"barrier": "kerb", "kerb": "lowered", "tactile_paving": "no"}}, {"type": "node", "id": 10179045367, "lat": 40.7433642, "lon": -73.9880974}, {"type": "node", "id": 10179045372, "lat": 40.742794, "lon": -73.9867424}, {"type": "node", "id": 10179045373, "lat": 40.7427872, "lon": -73.9867274, "tags": {"barrier": "kerb", "kerb": "lowered", "tactile_paving": "yes"}}, {"type": "node", "id": 10179045374, "lat": 40.742779, "lon": -73.9867146}, {"type": "node", "id": 10179045375, "lat": 40.74276, "lon": -73.9867083}, {"type": "node", "id": 10179045376, "lat": 40.7427695, "lon": -73.9867075}, {"type": "node", "id": 10179045657, "lat": 40.7433572, "lon": -73.9881543, "tags": {"barrier": "kerb", "kerb": "lowered", "tactile_paving": "no"}}, {"type": "node", "id": 10179045675, "lat": 40.7422292, "lon": -73.9870917, "tags": {"barrier": "kerb", "kerb": "lowered", "tactile_paving": "yes"}}, {"type": "node", "id": 10179045679, "lat": 40.7421334, "lon": -73.9871614, "tags": {"barrier": "kerb", "kerb": "lowered", "tactile_paving": "yes"}}, {"type": "node", "id": 10179045690, "lat": 40.7415361, "lon": -73.9875963, "tags": {"barrier": "kerb", "kerb": "lowered", "tactile_paving": "yes"}}, {"type": "node", "id": 10179045691, "lat": 40.7416233, "lon": -73.9875329, "tags": {"barrier": "kerb", "kerb": "lowered", "tactile_paving": "yes"}}, {"type": "node", "id": 10650625205, "lat": 40.7457045, "lon": -73.985371, "tags": {"addr:city": "New York", "addr:housenumber": "13", "addr:postcode": "10016", "addr:state": "NY", "addr:street": "East 30th Street", "amenity": "restaurant", "contact:instagram": "okdongsik", "cuisine": "korean", "email": "okdongsik@handhospitality.com", "level": "1", "name": "Okdongsik", "opening_hours": "Mo off; Tu-Su 11:00-14:30,17:00-21:00", "phone": "+1-929-237-8164", "reservation": "yes", "start_date": "2022-11", "website": "https://www.handhospitality.com/okdongsik", "website:booking": "https://resy.com/cities/ny/okdongsik"}}, {"type": "node", "id": 10694203546, "lat": 40.7470064, "lon": -73.9853791, "tags": {"addr:city": "New York", "addr:floor": "2", "addr:housenumber": "315", "addr:postcode": "10016", "addr:state": "NY", "addr:street": "5th Avenue", "amenity": "restaurant", "cuisine": "korean", "name": "Soju Haus", "phone": "+1-212-213-2177", "website": "https://www.sojuhaus.com/"}}, {"type": "node", "id": 10796001208, "lat": 40.7470406, "lon": -73.9859223, "tags": {"addr:city": "New York", "addr:floor": "2", "addr:housenumber": "312", "addr:postcode": "10001", "addr:state": "NY", "addr:street": "5th Avenue", "amenity": "restaurant", "branch": "Manhattan", "cuisine": "korean", "name": "Gopchang Story BBQ", "opening_hours": "Mo-Th 16:00-01:00; Fr,Sa 12:00-15:00,17:00-03:00; Su 12:00-15:00,17:00-01:00", "phone": "+1-646-371-9469", "reservation": "yes", "website": "https://www.gopchangbbq.com/"}}, {"type": "node", "id": 10911526106, "lat": 40.7477192, "lon": -73.989028, "tags": {"addr:housenumber": "874", "addr:postcode": "10001", "addr:street": "West 31st Street", "amenity": "cafe", "name": "Gregory\u2019s coffee", "opening_hours": "Mo-Fr 06:30-19:00; Su,Sa 07:00-19:00"}}, {"type": "node", "id": 11219716318, "lat": 40.7460456, "lon": -73.9880527, "tags": {"addr:city": "New York", "addr:housenumber": "1216", "addr:postcode": "10001", "addr:state": "NY", "addr:street": "Broadway", "description": "Nomadworks is a coworking space provider in New York City.", "email": "community@nomadworks.com", "name": "Nomadworks", "office": "yes", "opening_hours": "Mo-Fr 08:00-18:00; Sa 09:00-16:00", "phone": "+1-917-463-3650", "website": "https://nomadworks.com/"}}, {"type": "node", "id": 11229897237, "lat": 40.7452552, "lon": -73.9902833, "tags": {"addr:housenumber": "49", "addr:postcode": "10001", "addr:street": "West 27th Street", "amenity": "bar", "contact:instagram": "seeyamanana", "name": "Seeyama\u00f1ana", "opening_hours": "Su-We 11:00-00:00; Th-Sa 11:00-02:00", "phone": "+1 917-374-1682", "website": "https://www.seeyamanananyc.com/"}}, {"type": "node", "id": 11687868832, "lat": 40.7432446, "lon": -73.9912163, "tags": {"amenity": "restaurant", "cuisine": "korean", "name": "Mista Oh", "phone": "+1-646-559-8858", "website": "https://www.mrmistaohnyc.com/"}}, {"type": "node", "id": 11860537157, "lat": 40.7479234, "lon": -73.987814, "tags": {"addr:city": "New York", "addr:housenumber": "1250", "addr:postcode": "10001", "addr:state": "NY", "addr:street": "Broadway", "addr:unit": "1FL", "amenity": "restaurant", "cuisine": "asian;dessert", "name": "Nana's Green Tea", "opening_hours": "Fr-Su 11:00-21:00, Mo-Th 11:00-20:00", "takeaway": "yes", "website": "https://www.nanasgreenteaus.com/"}}, {"type": "node", "id": 11961070864, "lat": 40.7478282, "lon": -73.9875784, "tags": {"air_conditioning": "yes", "contact:linkedin": "https://www.linkedin.com/company/prometric/", "contact:twitter": "https://www.twitter.com/prometricglobal", "education": "centre", "level": "25", "name": "Prometric Lab 4253", "office": "educational_institution", "opening_hours": "Mo-Fr 07:00-17:00", "operator": "Prometric", "phone": "+1-646-6900303", "ref": "4253", "supervised": "yes", "toilets": "yes", "website": "https://www.prometric.com/", "wheelchair": "yes"}}, {"type": "node", "id": 11990405945, "lat": 40.7438235, "lon": -73.9860292, "tags": {"addr:housenumber": "72", "addr:street": "Madison Avenue", "amenity": "restaurant", "contact:email": "pete@roccosteakhouse.com", "contact:facebook": "RoccoSteakhouse", "contact:instagram": "roccosteakhouse", "contact:twitter": "roccosteakhouse", "cuisine": "steak", "name": "Rocco Steakhouse", "opening_hours": "Mo-Th 12:00-22:30; Fr 12:00-23:00; Sa 11:00-23:00; Su 11:00-22:00", "phone": "+1 212-696-9660", "website": "https://roccosteakhouse.com/"}}, {"type": "node", "id": 12235107077, "lat": 40.7474645, "lon": -73.9922458, "tags": {"amenity": "restaurant", "cuisine": "asian;sushi", "name": "New M & J", "opening_hours": "Mo-Fr 11:00-21:45, Su 12:00-21:45", "phone": "+1-212-533-6888", "website": "https://www.mjasiancuisinenyc.com"}}, {"type": "node", "id": 12249202528, "lat": 40.7479876, "lon": -73.9915765, "tags": {"addr:housenumber": "140", "addr:postcode": "10001", "addr:street": "West 30th Street", "amenity": "restaurant", "bar": "yes", "cocktails": "yes", "cuisine": "asian", "drink:beer": "yes", "drink:liquor": "yes", "drink:wine": "yes", "happy_hours": "Mo-Fr 16:00-18:00", "name": "Piggyback", "opening_hours": "Mo 17:00-21:00; Tu-Th 11:30-14:30,17:00-21:00; Fr 11:30-14:30,17:00-22:00; Sa 11:00-15:00,17:00-22:00; Su 11:00-15:00", "phone": "+1-212-239-0570", "website": "https://www.piggybacknyc.com"}}, {"type": "node", "id": 12528016586, "lat": 40.7443354, "lon": -73.9905424, "tags": {"amenity": "restaurant", "cuisine": "japanese", "name": "Towa", "opening_hours": "Mo-Th 18:00-22:00, Fr-Sa 17:15-22:00, Su 17:15-21:30", "phone": "+1-646-351-6258", "website": "https://www.towanyc.com"}}, {"type": "node", "id": 12604039968, "lat": 40.7471726, "lon": -73.9871962, "tags": {"amenity": "restaurant", "bar": "yes", "cuisine": "sushi;korean", "drink:beer": "yes", "drink:liquor": "yes", "drink:wine": "yes", "happy_hours": "Mo-Sa 16:30-18:30", "name": "K Sushi & Bar", "opening_hours": "Mo-Fr 12:00-14:30,16:30-22:30; Sa 16:30-22:30", "phone": "+1-212-933-0638", "website": "https://www.ksushiandbar.com"}}, {"type": "node", "id": 12662597204, "lat": 40.7469733, "lon": -73.9853512, "tags": {"addr:housenumber": "315 3FL", "addr:postcode": "10016", "addr:street": "5th Avenue", "amenity": "restaurant", "contact:instagram": "nubiani.nyc", "cuisine": "korean", "email": "info@nubianinyc.com", "name": "Nubiani", "opening_hours": "Mo-We 12:00-23:00; Th 12:00-00:00; Fr-Sa 12:00-01:00; Su 12:00-23:00", "phone": "+1-917-623-0807", "website": "https://www.nubianinyc.com/", "website:menu": "https://www.nubianinyc.com/menu"}}, {"type": "node", "id": 12662611901, "lat": 40.7451752, "lon": -73.9881914, "tags": {"addr:housenumber": "15", "addr:postcode": "10001", "addr:street": "West 28th Street", "amenity": "restaurant", "contact:facebook": "kazunorisushi", "contact:instagram": "kazunorisushi", "contact:twitter": "kazunorisushi", "cuisine": "japanese", "email": "eat@kazunorisushi.com", "name": "Kazunori", "opening_hours": "Su-Th 11:30-23:00; Fr-Sa 11:30-23:30", "phone": "+1-347-594-5940", "website": "https://www.handrollbar.com/locations/nomad/", "website:menu": "https://www.handrollbar.com/new-york-menu-nomad-nyb/"}}, {"type": "node", "id": 12679936180, "lat": 40.7454773, "lon": -73.9916409, "tags": {"addr:city": "New York", "addr:postcode": "10001", "addr:state": "NY", "addr:street": "1178 Broadway, 3rd Floor, #112", "description": "D'Andrea Law PLLC provides dedicated employment law services to individuals and small business owners throughout New York City. Attorney Theresa D'Andrea has over a decade of experience and has successfully litigated and resolved thousands of cases in New", "name": "D'Andrea Law PLLC", "office": "lawyer", "opening_hours": "Monday to Friday: 10:00 AM - 6:00 PM", "phone": "+1 201-255-7905", "website": "https://www.lawdandrea.com/"}}, {"type": "node", "id": 12684331061, "lat": 40.7440307, "lon": -73.985331, "tags": {"addr:city": "New York", "addr:housenumber": "79", "addr:postcode": "10016", "addr:state": "NY", "addr:street": "Madison Avenue", "name": "Ottinger Employment Lawyers", "office": "lawyer", "opening_hours": "Mo-Fr 09:00-18:00", "phone": "+1-347-492-1904", "phone:US": "+1-866-866-0148", "start_date": "1999-01-01", "website": "https://www.ottingerlaw.com/"}}, {"type": "node", "id": 12917344529, "lat": 40.7446681, "lon": -73.9877567, "tags": {"addr:city": "New York", "addr:housenumber": "244", "addr:postcode": "10001", "addr:state": "NY", "addr:street": "5th Avenue", "contact:facebook": "61571414856900", "contact:linkedin": "hiltzik-cpa", "contact:phone": "+1-212-729-3938", "contact:pinterest": "hiltzikcpa", "contact:website": "https://hiltzikcpa.com/", "contact:yelp": "hiltzik-cpa-new-york", "contact:youtube": "hiltzikcpa", "name": "Hiltzik CPA", "office": "accountant"}}, {"type": "node", "id": 12973757302, "lat": 40.7458899, "lon": -73.9866573, "tags": {"addr:housenumber": "276", "amenity": "restaurant", "name": "Kaiten Zushi Nomad"}}, {"type": "node", "id": 12973789901, "lat": 40.7441781, "lon": -73.9887861, "tags": {"addr:housenumber": "1150", "addr:street": "Broadway", "amenity": "bar", "name": "230 Fifth Rooftop"}}, {"type": "way", "id": 22899286, "nodes": [8268734924, 8268699406, 10179045317, 10179045318, 10179045316, 8268699407, 246525111, 8268699408, 10179045334, 10179045355, 10179045356, 10179045357, 6210354194, 10179045358, 6243560187, 10179045361, 10179045359, 8268734921, 8268734923, 10179045362, 10179045363, 10179045657, 10179045364, 10179045365, 10179045366, 10179045367, 3019038940, 10179045372, 10179045373, 10179045374, 10179045376, 10179045375, 246525115, 10179045675, 10179045679, 10179045691, 10179045690, 8268734939, 10179045297, 10179045314, 10179045315, 8268734924], "tags": {"addr:city": "New York", "addr:housenumber": "11", "addr:postcode": "10010", "addr:state": "NY", "addr:street": "Madison Avenue", "leisure": "park", "name": "Madison Square Park", "name:en": "Madison Square Park", "name:etymology:wikidata": "Q11813", "name:ru": "\u041c\u044d\u0434\u0438\u0441\u043e\u043d-\u0441\u043a\u0432\u0435\u0440", "name:zh": "\u9ea6\u8fea\u900a\u5e7f\u573a\u516c\u56ed", "opening_hours": "06:00-23:00", "operator": "New York City Department of Parks and Recreation", "operator:short": "NYC Parks", "operator:type": "government", "operator:wikidata": "Q1894232", "phone": "+1-212-520-7600", "website": "https://madisonsquarepark.org/", "wikidata": "Q110000", "wikipedia": "en:Madison Square and Madison Square Park"}}, {"type": "way", "id": 34633854, "nodes": [402743563, 402743567, 402743571, 402743573, 2709307502, 2709307499, 2709307464, 402743563], "tags": {"addr:city": "New York", "addr:housenumber": "350", "addr:postcode": "10118", "addr:state": "NY", "addr:street": "5th Avenue", "architect": "Shreve, Lamb & Harmon", "architect:wikidata": "Q5188433", "building": "office", "building:architecture": "art_deco", "building:colour": "beige", "building:levels": "102", "building:use": "office", "check_date": "2021-04-21", "construction_date": "1930-1931", "ele": "15", "gnis:feature_id": "949654", "height": "443.2", "heritage": "2", "heritage:operator": "nrhp", "landmark": "12", "name": "Empire State Building", "name:en": "Empire State Building", "name:es": "Edificio Empire State", "name:he": "\u05d1\u05e0\u05d9\u05d9\u05df \u05d0\u05de\u05e4\u05d9\u05d9\u05e8 \u05e1\u05d8\u05d9\u05d9\u05d8", "name:hi": "\u090f\u092e\u094d\u092a\u093e\u092f\u0930 \u0938\u094d\u091f\u0947\u091f \u092c\u093f\u0932\u094d\u0921\u093f\u0902\u0917", "name:ko": "\uc5e0\ud30c\uc774\uc5b4 \uc2a4\ud14c\uc774\ud2b8 \ube4c\ub529", "name:ru": "\u042d\u043c\u043f\u0430\u0439\u0440-\u0421\u0442\u0435\u0439\u0442-\u0411\u0438\u043b\u0434\u0438\u043d\u0433", "name:uk": "\u0415\u043c\u043f\u0430\u0439\u0440-\u0421\u0442\u0435\u0439\u0442-\u0411\u0456\u043b\u0434\u0456\u043d\u0433", "name:zh": "\u5e1d\u56fd\u5927\u53a6", "nycdoitt:bin": "1015862", "office": "yes", "opening_hours": "Mo-Su 08:00-02:00", "phone": "+1-212-736-3100", "start_date": "1931", "tourism": "attraction", "website": "https://www.esbnyc.com/explore", "wheelchair": "yes", "wikidata": "Q9188", "wikimedia_commons": "Category:Empire State Building", "wikipedia": "en:Empire State Building"}}, {"type": "way", "id": 221674463, "nodes": [10170994751, 2307164621, 2307164627, 2307164619, 2307164625, 2549953424, 2634318928, 10170994751], "tags": {"access": "yes", "area": "yes", "leisure": "park", "opening_hours": "07:00-20:30", "wheelchair": "yes"}}, {"type": "way", "id": 248143749, "nodes": [2549953397, 2549953424, 2634318928, 2549953465, 2549953397], "tags": {"addr:city": "New York", "addr:housenumber": "48", "addr:postcode": "10001", "addr:street": "West 27th Street", "amenity": "cafe", "building": "yes", "cuisine": "thai;dessert;tea", "height": "46.7", "name": "nuar", "nycdoitt:bin": "1015665", "opening_hours": "Mo-Su 10:30-21:00", "outdoor_seating": "yes"}}, {"type": "way", "id": 265042463, "nodes": [2706939961, 2706939988, 1709979773, 2706940001, 2706939976, 2706939961], "tags": {"addr:city": "New York", "addr:housenumber": "110", "addr:postcode": "10016", "addr:state": "NY", "addr:street": "Madison Avenue", "amenity": "restaurant", "building": "yes", "building:colour": "#E1E7EB", "building:levels": "17", "building:material": "brick", "cuisine": "korean", "height": "46", "name": "on", "nycdoitt:bin": "1016940", "opening_hours": "12:00-14:15,18:00-23:00", "phone": "+1-917-261-4326", "roof:material": "concrete", "roof:shape": "flat", "website": "https://www.onnewyork.net/"}}, {"type": "way", "id": 395678163, "nodes": [2706939903, 2706939893, 2706939900, 2706939899, 3985008886, 2706939914, 2706939918, 2706939912, 2706939911, 9910687165, 2706939919, 2706939915, 2706939922, 2706939924, 9910687143, 2706939928, 2706939931, 2706939939, 2706939942, 2706939937, 3985008887, 2706939921, 2706939903], "tags": {"access": "private", "leisure": "park", "opening_hours": "Mo-Su 08:00-sunset"}}, {"type": "way", "id": 665897391, "nodes": [4186110812, 2703449561, 2703449572, 2703449586, 2703449593, 6233604764, 6233604762, 6233604763, 4186110812], "tags": {"addr:city": "New York", "addr:housenumber": "54", "addr:postcode": "10001", "addr:street": "West 31st Street", "amenity": "bar", "cocktails": "yes", "contact:facebook": "http://www.facebook.com/oreillyspubnyc", "cuisine": "pub", "drink:beer": "yes", "drink:liquor": "yes", "drink:wine": "yes", "email": "info@oreillyspubnyc.com", "fax": "+1 212-689-5788", "name": "O'Reilly's Pub", "opening_hours": "11:00-02:00", "opening_hours:kitchen": "11:00-23:30", "outdoor_seating": "roof", "phone": "+1 212-684-4244", "toilets": "yes", "website": "https://www.oreillyspubnyc.com", "wheelchair": "limited"}}]}