{"version": 0.6, "generator": "Overpass API 0.7.62.8 e802775f", "osm3s": {"timestamp_osm_base": "2025-12-01T16:03:27Z", "copyright": "The data included in this document is from www.openstreetmap.org. The data is made available under ODbL."}, "elements": [{"type": "node", "id": 2561215331, "lat": 40.628861, "lon": -74.0054953, "tags": {"addr:housenumber": "6415", "addr:postcode": "11219", "addr:street": "11th Avenue", "amenity": "restaurant", "cuisine": "chinese", "name": "Yi Poh Kitchen", "opening_hours": "Mo-Tu,Th-Su 10:30-20:45", "phone": "+1-718-234-1688", "website": "https://www.yipohkitchen.com"}}, {"type": "node", "id": 2561215347, "lat": 40.628692, "lon": -74.0056721, "tags": {"addr:housenumber": "6423", "addr:postcode": "11219", "addr:street": "11th Avenue", "name": "Re/Max", "office": "estate_agent", "phone": "+1-718-872-5521", "website": "https://www.remax.com/real-estate-offices/remax-real-estate-professionals-brooklyn-ny/102228558"}}, {"type": "node", "id": 2561227324, "lat": 40.6310124, "lon": -74.008933}, {"type": "node", "id": 2561227338, "lat": 40.6310854, "lon": -74.0088238}, {"type": "node", "id": 2561227348, "lat": 40.6311248, "lon": -74.0091197}, {"type": "node", "id": 2561227353, "lat": 40.6311417, "lon": -74.008975}, {"type": "node", "id": 2561227354, "lat": 40.6311483, "lon": -74.0089508}, {"type": "node", "id": 2561227358, "lat": 40.6311526, "lon": -74.0090685}, {"type": "node", "id": 2561227359, "lat": 40.6311547, "lon": -74.0089615}, {"type": "node", "id": 2561227360, "lat": 40.6311548, "lon": -74.0089967}, {"type": "node", "id": 2561227362, "lat": 40.6311567, "lon": -74.0089421}, {"type": "node", "id": 2561227363, "lat": 40.6311609, "lon": -74.0090822}, {"type": "node", "id": 2561227368, "lat": 40.6311806, "lon": -74.0090394}, {"type": "node", "id": 2561485139, "lat": 40.6332662, "lon": -74.0055826, "tags": {"addr:city": "Brooklyn", "addr:housenumber": "5920", "addr:postcode": "11219", "addr:street": "Fort Hamilton Parkway", "amenity": "restaurant", "cuisine": "japanese", "name": "Tengu Sushi & Noodle", "opening_hours": "Mo-Su 11:00-23:00", "phone": "+1-718-633-3336"}}, {"type": "node", "id": 2715812923, "lat": 40.6328039, "lon": -74.0033596}, {"type": "node", "id": 2715812924, "lat": 40.6332335, "lon": -74.002915}, {"type": "node", "id": 2715812925, "lat": 40.6334175, "lon": -74.0043777}, {"type": "node", "id": 2715812926, "lat": 40.6338477, "lon": -74.0039198}, {"type": "node", "id": 4314552515, "lat": 40.6321332, "lon": -74.0078455}, {"type": "node", "id": 4314552516, "lat": 40.6323818, "lon": -74.0075747}, {"type": "node", "id": 4314552520, "lat": 40.6319361, "lon": -74.0075244}, {"type": "node", "id": 5538321051, "lat": 40.6335723, "lon": -74.0046131}, {"type": "node", "id": 5538321052, "lat": 40.6339271, "lon": -74.0040521}, {"type": "node", "id": 7212724466, "lat": 40.633308, "lon": -74.0062004, "tags": {"addr:city": "Brooklyn", "addr:housenumber": "952", "addr:postcode": "11219", "addr:state": "NY", "addr:street": "60th Street", "amenity": "restaurant", "name": "Shokunin BBQ", "opening_hours": "Mo-Su 12:00-02:00"}}, {"type": "node", "id": 7212724468, "lat": 40.6328241, "lon": -74.0056598, "tags": {"addr:city": "Brooklyn", "addr:housenumber": "6005", "addr:postcode": "11219", "addr:state": "NY", "addr:street": "Fort Hamilton Parkway", "amenity": "restaurant", "cuisine": "chinese", "name": "Best 1 Kitchen", "phone": "+1-718-853-1388"}}, {"type": "node", "id": 10286441082, "lat": 40.6332998, "lon": -74.0030235}, {"type": "node", "id": 10286441083, "lat": 40.6328699, "lon": -74.0034691}, {"type": "node", "id": 11658242570, "lat": 40.6338842, "lon": -74.0047203, "tags": {"addr:city": "Brooklyn", "addr:housenumber": "5816", "addr:postcode": "11219", "addr:state": "NY", "addr:street": "Fort Hamilton Pkwy", "amenity": "restaurant", "cuisine": "chinese", "name": "Xiang Hotpot-Brooklyn", "opening_hours": "Mo-Su 12:00-1:00", "phone": "+1 718-851-5888", "website": "https://xianghotpot.myallvalue.com/"}}, {"type": "node", "id": 11795950199, "lat": 40.6328708, "lon": -74.0048964, "tags": {"addr:city": "Brooklyn", "addr:housenumber": "1001", "addr:postcode": "11219", "addr:state": "NY", "addr:street": "60th Street", "amenity": "restaurant", "cuisine": "vietnamese", "name": "Pho 60", "opening_hours": "Tu-Su 11:00-21:30", "phone": "+1-718-885-7722"}}, {"type": "node", "id": 11795951919, "lat": 40.6328554, "lon": -74.0055944, "tags": {"addr:city": "Brooklyn", "addr:housenumber": "6001", "addr:postcode": "11219", "addr:state": "NY", "addr:street": "Fort Hamilton Parkway", "amenity": "cafe", "cuisine": "chinese", "internet_access": "no", "name": "Sai Cafe", "opening_hours": "Mo-Su 07:00-17:30", "outdoor_seating": "no", "phone": "+1-646-361-1524"}}, {"type": "node", "id": 12585246697, "lat": 40.6321466, "lon": -74.0072007}, {"type": "way", "id": 249534663, "nodes": [2561227353, 2561227359, 2561227354, 2561227362, 2561227338, 2561227324, 2561227348, 2561227363, 2561227358, 2561227368, 2561227360, 2561227353], "tags": {"addr:city": "Brooklyn", "addr:housenumber": "6408", "addr:postcode": "11219", "addr:state": "NY", "addr:street": "Fort Hamilton Parkway", "amenity": "restaurant", "building": "yes", "cuisine": "sushi", "height": "4.1", "name": "Rakuzen AYCE Sushi", "nycdoitt:bin": "3328762", "phone": "+1-718-238-0008"}}, {"type": "way", "id": 265983872, "nodes": [2715812924, 2715812923, 10286441083, 2715812925, 2715812926, 10286441082, 2715812924], "tags": {"amenity": "school", "name": "Public School 105"}}, {"type": "way", "id": 432388887, "nodes": [4314552515, 4314552516, 12585246697, 4314552520, 4314552515], "tags": {"amenity": "school", "name": "P.S. 310"}}, {"type": "way", "id": 577813846, "nodes": [2715812925, 5538321051, 5538321052, 2715812926, 2715812925], "tags": {"leisure": "park", "name": "Bocchino-Dente Memorial Plaza", "ref": "BZ28", "website": "https://www.nycgovparks.org/parks/bochino-dente-plaza", "wikidata": "Q28123333", "wikipedia": "en:Bocchino-Dente Memorial Plaza"}}]}