{"version": 0.6, "generator": "Overpass API 0.7.62.8 e802775f", "osm3s": {"timestamp_osm_base": "2025-12-01T15:18:04Z", "copyright": "The data included in this document is from www.openstreetmap.org. The data is made available under ODbL."}, "elements": [{"type": "node", "id": 357584619, "lat": 40.6714923, "lon": -73.9456934, "tags": {"amenity": "school", "ele": "27", "gnis:feature_id": "963533", "name": "Saint Gregorys School"}}, {"type": "node", "id": 357619275, "lat": 40.6697222, "lon": -73.9438889, "tags": {"amenity": "school", "ele": "28", "gnis:feature_id": "2081878", "name": "Arista Preparatory School"}}, {"type": "node", "id": 357619829, "lat": 40.6675474, "lon": -73.9450322}, {"type": "node", "id": 2567035049, "lat": 40.6674075, "lon": -73.9448263}, {"type": "node", "id": 2567036102, "lat": 40.6672677, "lon": -73.9447174}, {"type": "node", "id": 2567036103, "lat": 40.6672712, "lon": -73.9447857}, {"type": "node", "id": 2567036106, "lat": 40.6672777, "lon": -73.9449099}, {"type": "node", "id": 2567036113, "lat": 40.667283, "lon": -73.945013}, {"type": "node", "id": 2567036169, "lat": 40.6673786, "lon": -73.9447761}, {"type": "node", "id": 2567036171, "lat": 40.6673813, "lon": -73.9448286}, {"type": "node", "id": 2567036174, "lat": 40.6673988, "lon": -73.944899}, {"type": "node", "id": 2567036175, "lat": 40.6674004, "lon": -73.9449298}, {"type": "node", "id": 2567036176, "lat": 40.6674003, "lon": -73.9446889}, {"type": "node", "id": 2567036177, "lat": 40.6674012, "lon": -73.9447054}, {"type": "node", "id": 2567036182, "lat": 40.6674165, "lon": -73.945001}, {"type": "node", "id": 2567036185, "lat": 40.6674187, "lon": -73.9450438}, {"type": "node", "id": 2567036187, "lat": 40.6674128, "lon": -73.9449287}, {"type": "node", "id": 2567036224, "lat": 40.667529, "lon": -73.9446774}, {"type": "node", "id": 2573544621, "lat": 40.6718831, "lon": -73.9365253}, {"type": "node", "id": 2573544622, "lat": 40.6719997, "lon": -73.9387412}, {"type": "node", "id": 2573544623, "lat": 40.6722932, "lon": -73.937822}, {"type": "node", "id": 2573544624, "lat": 40.6723399, "lon": -73.9387101}, {"type": "node", "id": 2573544626, "lat": 40.672585, "lon": -73.9364612}, {"type": "node", "id": 2573544627, "lat": 40.6726548, "lon": -73.9377889}, {"type": "node", "id": 4367683495, "lat": 40.6719597, "lon": -73.9418137, "tags": {"addr:city": "Brooklyn", "addr:housenumber": "233", "addr:postcode": "11213", "addr:state": "NY", "addr:street": "Kingston Avenue", "amenity": "restaurant", "name": "Jenny #2 Restaurant", "name:en": "Jenny Coffee Shop #2", "phone": "+1 718 604 9376;+1 347 435 0656"}}, {"type": "node", "id": 4933390022, "lat": 40.6689929, "lon": -73.9428157, "tags": {"addr:city": "Brooklyn", "addr:housenumber": "770", "addr:postcode": "11213", "addr:state": "NY", "addr:street": "Eastern Parkway", "email": "info@lubavitch.com", "name": "Chabad Lubavitch", "name:en": "Chabad Lubavitch", "name:he": "\u05de\u05e8\u05db\u05d6 \u05d7\u05d1\"\u05d3 \u05d4\u05e2\u05d5\u05dc\u05de\u05d9", "office": "ngo", "opening_hours": "24/7", "phone": "+1-718-774-4000", "website": "https://www.lubavitch.com/"}}, {"type": "node", "id": 10885430068, "lat": 40.671056, "lon": -73.9424343, "tags": {"addr:housenumber": "1090", "addr:postcode": "11213", "addr:street": "Saint Johns Place", "amenity": "cafe", "bar": "wine_bar", "cuisine": "eclectic;pastry", "drink:beer": "yes", "drink:coffee": "yes", "drink:espresso": "yes", "drink:wine": "yes", "name": "Daughter", "opening_hours": "Mo-Fr 08:00-16:00; Sa-Su 09:00-17:00 \"cafe\"||We-Sa 16:00-23:00 \"bar\"", "outdoor_seating": "sidewalk", "website": "https://www.daughter.nyc"}}, {"type": "node", "id": 10989822650, "lat": 40.6689883, "lon": -73.94208, "tags": {"amenity": "cafe", "cuisine": "coffee_shop", "name": "Chocolate Espresso Bar"}}, {"type": "way", "id": 250220910, "nodes": [2567036176, 2567036177, 2567036102, 2567036103, 2567036169, 2567036171, 2567035049, 2567036187, 2567036175, 2567036174, 2567036106, 2567036113, 2567036182, 2567036185, 357619829, 2567036224, 2567036176], "tags": {"addr:housenumber": "1346", "addr:postcode": "11213", "addr:street": "President Street", "amenity": "school", "building": "hospital", "denomination": "episcopal", "fax": "+1-718-467-4655", "gnis:feature_id": "2082278", "height": "19.6", "name": "St. Mark's Day School", "nycdoitt:bin": "3033652", "old_name": "Hospital Of Saint Giles", "phone": "+1-718-756-6602", "religion": "christian", "website": "http://www.saintmarksdayschool.org"}}, {"type": "way", "id": 251063474, "nodes": [2573544622, 2573544621, 2573544626, 2573544627, 2573544623, 2573544624, 2573544622], "tags": {"amenity": "school", "gnis:feature_id": "2081618", "name": "Public School 390"}}]}