{"version": 0.6, "generator": "Overpass API 0.7.62.8 e802775f", "osm3s": {"timestamp_osm_base": "2025-12-01T17:19:07Z", "copyright": "The data included in this document is from www.openstreetmap.org. The data is made available under ODbL."}, "elements": [{"type": "node", "id": 357619348, "lat": 40.705, "lon": -73.9530556, "tags": {"amenity": "school", "ele": "9", "gnis:feature_id": "2081901", "name": "Bnos Yakov School for Girls"}}, {"type": "node", "id": 2837986015, "lat": 40.7046722, "lon": -73.9532117}, {"type": "node", "id": 2837986024, "lat": 40.7047091, "lon": -73.9531558}, {"type": "node", "id": 2837986044, "lat": 40.7047903, "lon": -73.9533462}, {"type": "node", "id": 2837986045, "lat": 40.7047938, "lon": -73.9533409}, {"type": "node", "id": 2837986050, "lat": 40.7048271, "lon": -73.9532904}, {"type": "node", "id": 2837986054, "lat": 40.7048602, "lon": -73.9534165}, {"type": "node", "id": 2837986061, "lat": 40.7048935, "lon": -73.953366}, {"type": "node", "id": 2838022243, "lat": 40.7072208, "lon": -73.9548366, "tags": {"addr:housenumber": "384", "addr:postcode": "11211", "addr:street": "Broadway", "name": "Javier Nieves", "office": "lawyer", "phone": "+1-718-388-2309"}}, {"type": "node", "id": 2838022244, "lat": 40.7071875, "lon": -73.9547343, "tags": {"addr:housenumber": "386", "addr:postcode": "11211", "addr:street": "Broadway", "name": "Mid-City Brokerage Corp.", "office": "insurance", "phone": "+1-718-384-0300"}}, {"type": "node", "id": 2838022938, "lat": 40.7070549, "lon": -73.9546409}, {"type": "node", "id": 2838022959, "lat": 40.7071428, "lon": -73.9545672}, {"type": "node", "id": 2838353329, "lat": 40.7061555, "lon": -73.9519987, "tags": {"addr:housenumber": "324", "addr:postcode": "11211", "addr:street": "Penn Street", "amenity": "school", "ele": "7", "gnis:feature_id": "2082297", "name": "Talmud Torah of Kasho"}}, {"type": "node", "id": 2838525822, "lat": 40.7076759, "lon": -73.9516638, "tags": {"addr:housenumber": "362", "addr:postcode": "11211", "addr:street": "Hewes Street", "amenity": "cafe", "drink:coffee": "yes", "drink:espresso": "yes", "name": "Nyla", "outdoor_seating": "sidewalk", "phone": "+1-347-859-7102", "website": "https://cafenyla.com"}}, {"type": "node", "id": 2838530799, "lat": 40.7070651, "lon": -73.9523273, "tags": {"addr:housenumber": "345", "addr:postcode": "11211", "addr:street": "Hewes Street", "amenity": "school", "ele": "8", "gnis:feature_id": "2081897", "name": "Bnos Chayil"}}, {"type": "node", "id": 2838683400, "lat": 40.7094049, "lon": -73.9537604}, {"type": "node", "id": 2838683510, "lat": 40.709462, "lon": -73.9537245}, {"type": "node", "id": 2838683528, "lat": 40.7095162, "lon": -73.9538076}, {"type": "node", "id": 2838683537, "lat": 40.7095577, "lon": -73.9541805}, {"type": "node", "id": 2838683543, "lat": 40.7095985, "lon": -73.9540339}, {"type": "node", "id": 2838683564, "lat": 40.7096603, "lon": -73.9537171}, {"type": "node", "id": 2838683572, "lat": 40.7097016, "lon": -73.953574}, {"type": "node", "id": 2838683585, "lat": 40.7097427, "lon": -73.9539434}, {"type": "node", "id": 2838683586, "lat": 40.7097505, "lon": -73.9537085}, {"type": "node", "id": 2838683591, "lat": 40.7097792, "lon": -73.9537874}, {"type": "node", "id": 2838683596, "lat": 40.7098185, "lon": -73.9538952}, {"type": "node", "id": 2838683599, "lat": 40.7098281, "lon": -73.9538892}, {"type": "node", "id": 2838683701, "lat": 40.7098333, "lon": -73.9539034}, {"type": "node", "id": 2838683710, "lat": 40.7098613, "lon": -73.9539805}, {"type": "node", "id": 2838683711, "lat": 40.709864, "lon": -73.953988}, {"type": "node", "id": 3699348802, "lat": 40.709655, "lon": -73.9570363}, {"type": "node", "id": 3699348803, "lat": 40.7095932, "lon": -73.9568867}, {"type": "node", "id": 3699348804, "lat": 40.7090632, "lon": -73.9572091}, {"type": "node", "id": 3699348805, "lat": 40.7091221, "lon": -73.9573658}, {"type": "node", "id": 3699350418, "lat": 40.7100186, "lon": -73.9559296}, {"type": "node", "id": 3699350419, "lat": 40.7099198, "lon": -73.9556531}, {"type": "node", "id": 3699350420, "lat": 40.709464, "lon": -73.9559364}, {"type": "node", "id": 3699350421, "lat": 40.7095628, "lon": -73.9562129}, {"type": "node", "id": 3699351162, "lat": 40.7093997, "lon": -73.9563599}, {"type": "node", "id": 3699351163, "lat": 40.7092975, "lon": -73.9560593}, {"type": "node", "id": 3699351164, "lat": 40.7087878, "lon": -73.956361}, {"type": "node", "id": 3699351165, "lat": 40.70889, "lon": -73.9566616}, {"type": "node", "id": 3699351166, "lat": 40.7087533, "lon": -73.9567694}, {"type": "node", "id": 3699351167, "lat": 40.708646, "lon": -73.9564531}, {"type": "node", "id": 3699351168, "lat": 40.7084033, "lon": -73.9565965}, {"type": "node", "id": 3699351169, "lat": 40.7084344, "lon": -73.9566881}, {"type": "node", "id": 3699351170, "lat": 40.7081651, "lon": -73.9568472}, {"type": "node", "id": 3699351171, "lat": 40.7082414, "lon": -73.9570718}, {"type": "node", "id": 4900542421, "lat": 40.7075441, "lon": -73.9549967, "tags": {"addr:housenumber": "367A", "addr:postcode": "11211", "addr:street": "Broadway", "amenity": "restaurant", "name": "Mexico 2000"}}, {"type": "node", "id": 5613044405, "lat": 40.7073204, "lon": -73.9537223, "tags": {"addr:housenumber": "308", "addr:postcode": "11211", "addr:street": "Hooper Street", "amenity": "cafe", "bar": "yes", "cocktails": "yes", "drink:beer": "draught", "drink:coffee": "yes", "drink:espresso": "yes", "drink:kombucha": "draught", "drink:liquor": "yes", "drink:wine": "yes", "internet_access": "wlan", "name": "The Fiction", "toilets": "yes"}}, {"type": "node", "id": 6086423444, "lat": 40.7092035, "lon": -73.9558364, "tags": {"addr:housenumber": "310", "addr:postcode": "11211", "addr:street": "South 4th Street", "amenity": "restaurant", "cocktails": "yes", "cuisine": "japanese;jewish", "drink:beer": "served", "drink:wine": "served", "email": "info@shalomjapannyc.com", "fax": "+1 718-387-7920", "name": "Shalom Japan", "opening_hours": "Tu-Th, Su 17:30-22:00; Fr, Sa 17:30-23:00; Sa, Su 11:00-15:00; Th 22:00-24:00", "phone": "+1 718-388-4012", "reservation": "yes", "website": "https://shalomjapannyc.com/"}}, {"type": "node", "id": 6402959206, "lat": 40.7060759, "lon": -73.9501176, "tags": {"addr:housenumber": "192", "addr:postcode": "11206", "addr:street": "Union Avenue", "amenity": "restaurant", "atm": "yes", "cuisine": "chinese", "name": "China Express", "phone": "+1-718-218-7919"}}, {"type": "node", "id": 7507478441, "lat": 40.7093286, "lon": -73.9540657, "tags": {"addr:city": "Brooklyn", "addr:housenumber": "330", "addr:postcode": "11211", "addr:state": "NY", "addr:street": "South 3rd Street", "amenity": "restaurant", "cuisine": "pizza", "name": "Dough Vale", "website": "https://www.doughvale.com/"}}, {"type": "node", "id": 8232714850, "lat": 40.7088424, "lon": -73.9510189}, {"type": "node", "id": 8627671858, "lat": 40.7055417, "lon": -73.9506952, "tags": {"addr:city": "Brooklyn", "addr:housenumber": "500", "addr:postcode": "11211", "addr:state": "NY", "addr:street": "Broadway", "name": "YM Suites", "office": "coworking", "phone": "+1-347-907-9068"}}, {"type": "node", "id": 9656825387, "lat": 40.7088573, "lon": -73.9508634}, {"type": "node", "id": 9959904520, "lat": 40.7089478, "lon": -73.9508971, "tags": {"barrier": "kerb", "kerb": "lowered"}}, {"type": "node", "id": 9959904528, "lat": 40.7089381, "lon": -73.9508736}, {"type": "node", "id": 9959904529, "lat": 40.7089482, "lon": -73.9508877}, {"type": "node", "id": 9959904530, "lat": 40.7089457, "lon": -73.95094}, {"type": "node", "id": 9959904531, "lat": 40.708932, "lon": -73.9509601}, {"type": "node", "id": 9959904532, "lat": 40.7088476, "lon": -73.950875, "tags": {"barrier": "kerb", "description": "Still elevated", "kerb": "lowered", "tactile_paving": "no", "wheelchair": "limited"}}, {"type": "node", "id": 9959904533, "lat": 40.7088369, "lon": -73.951001}, {"type": "node", "id": 10621406239, "lat": 40.7062646, "lon": -73.9522835, "tags": {"addr:city": "Brooklyn", "addr:housenumber": "452", "addr:postcode": "11211", "addr:state": "NY", "addr:street": "Broadway", "name": "Telebroad", "office": "company"}}, {"type": "node", "id": 10968042917, "lat": 40.7065966, "lon": -73.9522118, "tags": {"atm": "yes", "name": "Payomatic", "office": "financial", "opening_hours": "Mo-We 09:00-19:00; Fr 08:00-20:00; Sa 09:00-16:00"}}, {"type": "node", "id": 11869906402, "lat": 40.7069377, "lon": -73.9545805}, {"type": "node", "id": 11869906403, "lat": 40.706913, "lon": -73.9542727}, {"type": "node", "id": 11869906404, "lat": 40.7068787, "lon": -73.9542734}, {"type": "node", "id": 11869906405, "lat": 40.706802, "lon": -73.9544172}, {"type": "node", "id": 11968218727, "lat": 40.7075031, "lon": -73.950372, "tags": {"addr:housenumber": "234", "addr:street": "Union Avenue", "alt_name": "Healthy as a Motha", "amenity": "restaurant", "check_date": "2024-06-10", "contact:facebook": "https://www.facebook.com/Healthyasamotha/", "contact:instagram": "https://www.instagram.com/healthyasamotha", "contact:phone": "+1 212-271-0110", "contact:tiktok": "https://www.tiktok.com/@healthyasamotha", "contact:twitter": "https://twitter.com/HealthyMotha", "contact:website": "https://healthyasamotha.com/", "cuisine": "dominican;trinidadian", "diet:vegan": "only", "email": "healthyasamotha@gmail.com", "name": "HaaM"}}, {"type": "node", "id": 12244830003, "lat": 40.7082911, "lon": -73.9534105, "tags": {"addr:housenumber": "319", "addr:street": "Hooper Street", "amenity": "restaurant", "contact:instagram": "aligncoffee", "cuisine": "coffee_shop;pancake;savory_pancakes", "diet:vegan": "yes", "name": "Align Coffee", "opening_hours": "Mo 07:30-14:00; Tu-Fr 07:30-16:00; Sa-Su 08:00-16:00", "phone": "+13472720832", "website": "https://aligncoffee.day/"}}, {"type": "node", "id": 12397792687, "lat": 40.7070531, "lon": -73.9546163, "tags": {"entrance": "main"}}, {"type": "node", "id": 12397792688, "lat": 40.7071449, "lon": -73.9545734, "tags": {"entrance": "yes"}}, {"type": "node", "id": 12397792692, "lat": 40.7071117, "lon": -73.9545712}, {"type": "node", "id": 12397792696, "lat": 40.7070767, "lon": -73.9545885}, {"type": "node", "id": 12397792697, "lat": 40.7070512, "lon": -73.9545918}, {"type": "node", "id": 12397792698, "lat": 40.707147, "lon": -73.9545796}, {"type": "node", "id": 12397792699, "lat": 40.7070974, "lon": -73.9545859}, {"type": "node", "id": 12397792700, "lat": 40.7070758, "lon": -73.9545758}, {"type": "node", "id": 12397858001, "lat": 40.707101, "lon": -73.954635}, {"type": "way", "id": 279574671, "nodes": [2837986015, 2837986044, 2837986045, 2837986054, 2837986061, 2837986050, 2837986024, 2837986015], "tags": {"addr:housenumber": "281", "addr:postcode": "11211", "addr:street": "Rutledge Street", "amenity": "school", "building": "yes", "ele": "9", "gnis:feature_id": "2082403", "height": "12.0", "name": "Yeshiva Gedolah Ohr Yisroel", "nycdoitt:bin": "3060906"}}, {"type": "way", "id": 279661701, "nodes": [2838683599, 2838683596, 2838683591, 2838683586, 2838683572, 2838683510, 2838683400, 2838683537, 2838683711, 2838683710, 2838683701, 2838683599]}, {"type": "way", "id": 279661702, "nodes": [2838683528, 2838683564, 2838683585, 2838683543, 2838683528]}, {"type": "way", "id": 365936662, "nodes": [3699348802, 3699348803, 3699348804, 3699348805, 3699348802], "tags": {"ele": "10", "gnis:feature_id": "2381040", "leisure": "park", "name": "Marcy Green Center", "wikidata": "Q49521596"}}, {"type": "way", "id": 365936797, "nodes": [3699350418, 3699350419, 3699350420, 3699350421, 3699350418], "tags": {"ele": "6", "gnis:feature_id": "2381038", "leisure": "park", "name": "Strawberry Playground", "wikidata": "Q116205024"}}, {"type": "way", "id": 365936839, "nodes": [3699351162, 3699351163, 3699351164, 3699351165, 3699351162], "tags": {"ele": "5", "gnis:feature_id": "2381042", "leisure": "park", "name": "Rodney Park North", "wikidata": "Q34858302"}}, {"type": "way", "id": 365936840, "nodes": [3699351166, 3699351167, 3699351168, 3699351169, 3699351170, 3699351171, 3699351166], "tags": {"ele": "9", "gnis:feature_id": "2381043", "leisure": "park", "name": "Rodney Park Center", "wikidata": "Q34858288"}}, {"type": "way", "id": 1087028872, "nodes": [9656825387, 9959904532, 9959904533, 8232714850, 9959904531, 9959904530, 9959904520, 9959904529, 9959904528, 9656825387], "tags": {"leisure": "park", "name": "Lithuania Square", "operator": "New York City Department of Parks and Recreation", "operator:short": "NYC Parks", "operator:type": "government", "operator:wikidata": "Q1894232", "website": "https://www.nycgovparks.org/parks/lithuania-square", "wikidata": "Q49517923"}}, {"type": "way", "id": 1278607640, "nodes": [11869906402, 11869906403, 11869906404, 11869906405, 11869906402], "tags": {"addr:city": "Brooklyn", "addr:postcode": "11211", "addr:state": "NY", "addr:street": "Division Ave", "leisure": "park", "name": "Division & Hooper Triangle"}}, {"type": "way", "id": 1340286563, "nodes": [2838022959, 12397792688, 12397792698, 12397792699, 12397858001, 2838022938, 12397792687, 12397792697, 12397792696, 12397792700, 12397792692, 2838022959], "tags": {"addr:housenumber": "327", "addr:postcode": "11211", "addr:street": "Division Avenue", "amenity": "taxi", "name": "New Brooklyn Car Service", "office": "taxi", "phone": "+1-718-388-2828"}}, {"type": "relation", "id": 3719727, "members": [{"type": "way", "ref": 279661701, "role": "outer"}, {"type": "way", "ref": 279661702, "role": "inner"}], "tags": {"addr:housenumber": "360", "addr:postcode": "11211", "addr:street": "Keap Street", "amenity": "school", "building": "school", "ele": "7", "gnis:feature_id": "2082256", "height": "4.2", "name": "Public School 319", "nycdoitt:bin": "3063189", "type": "multipolygon"}}]}