{"version": 0.6, "generator": "Overpass API 0.7.62.8 e802775f", "osm3s": {"timestamp_osm_base": "2025-12-01T15:43:45Z", "copyright": "The data included in this document is from www.openstreetmap.org. The data is made available under ODbL."}, "elements": [{"type": "node", "id": 3810642475, "lat": 40.680154, "lon": -73.8929493, "tags": {"addr:city": "Brooklyn", "addr:housenumber": "188", "addr:postcode": "11207", "addr:state": "NY", "addr:street": "Jamaica Avenue", "amenity": "restaurant", "cocktails": "yes", "cuisine": "latin_american;chicken", "delivery": "yes", "drink:beer": "yes", "drink:wine": "yes", "name": "Super Pollo", "opening_hours": "Mo-Th 11:00-22:00; Fr-Su 11:00-23:00", "outdoor_seating": "yes", "phone": "+1-718-647-7800", "takeaway": "yes", "website": "https://superpollo.nyc"}}, {"type": "node", "id": 5813513904, "lat": 40.6788379, "lon": -73.8947873}, {"type": "node", "id": 5813513935, "lat": 40.6784056, "lon": -73.8954391}, {"type": "node", "id": 5813513938, "lat": 40.6785104, "lon": -73.8947015}, {"type": "node", "id": 5813513940, "lat": 40.6787277, "lon": -73.8955207}, {"type": "node", "id": 11808515600, "lat": 40.6781585, "lon": -73.8890196}, {"type": "node", "id": 11808515612, "lat": 40.6780433, "lon": -73.8892301}, {"type": "node", "id": 11808515614, "lat": 40.6779691, "lon": -73.8896811}, {"type": "node", "id": 11808515615, "lat": 40.6781144, "lon": -73.8892407}, {"type": "node", "id": 11808515617, "lat": 40.6782394, "lon": -73.8897476}, {"type": "node", "id": 11808515618, "lat": 40.6784458, "lon": -73.8890801}, {"type": "node", "id": 11841328560, "lat": 40.6759389, "lon": -73.8932377, "tags": {"name": "Brooklyn Tax", "office": "tax_advisor", "phone": "+1-347-240-1543"}}, {"type": "node", "id": 13189064550, "lat": 40.6765532, "lon": -73.891594, "tags": {"amenity": "bar", "name": "La Repuplika", "phone": "+1-917-337-3068"}}, {"type": "node", "id": 13189066644, "lat": 40.6765312, "lon": -73.891737, "tags": {"name": "R&G Brenner", "office": "tax_advisor", "website": "https://www.rgbrenner.com"}}, {"type": "node", "id": 13270561367, "lat": 40.6780226, "lon": -73.8908771, "tags": {"addr:housenumber": "2812", "addr:postcode": "11207", "addr:street": "Fulton Street", "disused:website": "http://www.lostaxes.com", "name": "Los Taxes", "office": "tax_advisor", "phone": "+1-718-645-0690"}}, {"type": "way", "id": 614595600, "nodes": [5813513940, 5813513904, 5813513938, 5813513935, 5813513940], "tags": {"leisure": "park", "name": "Geroge Walker Junior Playground", "old_name": "PS 76"}}, {"type": "way", "id": 1271600755, "nodes": [11808515617, 11808515618, 11808515600, 11808515615, 11808515612, 11808515614, 11808515617], "tags": {"amenity": "school", "name": "PS 290 Juan Morel Campos", "operator": "New York City Department of Education", "operator:short": "NYC Public Schools", "operator:type": "public", "operator:wikidata": "Q408230", "website": "https://www.ps290juanmorelcampos.org/"}}]}