{"version": 0.6, "generator": "Overpass API 0.7.62.8 e802775f", "osm3s": {"timestamp_osm_base": "2025-12-01T16:22:55Z", "copyright": "The data included in this document is from www.openstreetmap.org. The data is made available under ODbL."}, "elements": [{"type": "node", "id": 357567249, "lat": 40.6048269, "lon": -73.9951392, "tags": {"amenity": "school", "ele": "7", "gnis:feature_id": "954253", "name": "Public School 128"}}, {"type": "node", "id": 357619383, "lat": 40.6050263, "lon": -73.9953948, "tags": {"amenity": "school", "ele": "7", "gnis:feature_id": "2082097", "name": "Brooklyn Studio School"}}, {"type": "node", "id": 357619742, "lat": 40.6046382, "lon": -73.9948937, "tags": {"amenity": "school", "ele": "7", "gnis:feature_id": "2082252", "name": "Public School 280"}}, {"type": "node", "id": 1817742277, "lat": 40.6025917, "lon": -74.0020522}, {"type": "node", "id": 2556218501, "lat": 40.6049097, "lon": -73.9993077, "tags": {"addr:housenumber": "6", "addr:postcode": "11214", "addr:street": "Bay 23rd Street", "amenity": "cafe", "check_date": "2024-05-25", "contact:facebook": "https://www.facebook.com/nextmovecafe", "contact:instagram": "https://www.instagram.com/nextmovecafe", "email": "info@nextmovecafe.com", "internet_access": "wlan", "name": "Next Move Cafe", "opening_hours": "Su-Th 12:00-22:00; Fr-Sa 12:00-01:00", "outdoor_seating": "no", "payment:cash": "yes", "payment:credit_cards": "yes", "phone": "+1 718-676-9679", "website": "https://www.nextmovecafe.com/", "wheelchair": "no"}}, {"type": "node", "id": 2715723195, "lat": 40.602844, "lon": -74.0023158}, {"type": "node", "id": 2715723197, "lat": 40.603025, "lon": -74.0012566}, {"type": "node", "id": 2715723199, "lat": 40.6033295, "lon": -74.0018219}, {"type": "node", "id": 5159087925, "lat": 40.605577, "lon": -74.0006319, "tags": {"addr:city": "Brooklyn", "addr:housenumber": "8611", "addr:postcode": "11214", "addr:state": "NY", "addr:street": "19th Avenue", "amenity": "cafe", "cuisine": "korean;uzbek", "name": "At Your Mother-in-Law", "name:ru": "\u0443 \u0442\u0435\u0449\u0438", "opening_hours": "11:00-19:00", "outdoor_seating": "no", "phone": "+1-646-575-7153", "website": "https://www.eddiefancyfood.com/"}}, {"type": "node", "id": 5429435543, "lat": 40.6026895, "lon": -73.9982109, "tags": {"addr:city": "Brooklyn", "addr:housenumber": "60", "addr:postcode": "11214", "addr:state": "NY", "addr:street": "Bay 26th Street", "description": "Frekhtman & Associates is a personal injury law firm in NYC that provides representation for injury victims in New York.", "name": "Frekhtman & Associates", "office": "lawyer", "phone": "+1-347-751-6238", "website": "https://www.866attylaw.com/"}}, {"type": "node", "id": 7149910580, "lat": 40.6042785, "lon": -73.9980226, "tags": {"addr:city": "Brooklyn", "addr:floor": "G", "addr:housenumber": "2021", "addr:postcode": "11214", "addr:state": "NY", "addr:street": "86th Street", "air_conditioning": "yes", "amenity": "restaurant", "check_date": "2024-10-09", "cuisine": "malaysian", "delivery": "yes", "highchair": "no", "level": "0", "name": "Little House Malaysian Kitchen", "opening_hours": "11:00-20:30", "outdoor_seating": "no", "payment:cash": "yes", "payment:credit_cards": "yes", "phone": "+1-917-933-9879", "reservation": "yes", "smoking": "no", "takeaway": "yes", "website": "https://www.littlehousemalaysiankitchen.com/", "wheelchair": "yes"}}, {"type": "node", "id": 7209248001, "lat": 40.6061598, "lon": -74.001157, "tags": {"addr:housenumber": "1866", "addr:street": "86th Street", "amenity": "restaurant", "check_date": "2023-03-05", "cuisine": "polish", "delivery": "yes", "drink:beer": "yes", "drink:coffee": "yes", "drink:espresso": "yes", "drink:tea": "yes", "drink:wine": "yes", "name": "Chris's Restaurant", "opening_hours": "Mo-Sa 11:00-23:00; Su 11:00-22:00", "outdoor_seating": "yes", "payment:cash": "yes", "payment:credit_cards": "yes", "payment:debit_cards": "yes", "phone": "+1-347-462-3755", "reservation": "yes", "smoking": "no", "takeaway": "yes", "website": "https://chrissrestaurant.com/"}}, {"type": "node", "id": 8379782392, "lat": 40.6051341, "lon": -73.9994472, "tags": {"addr:city": "Brooklyn", "addr:housenumber": "1944", "addr:postcode": "11214", "addr:state": "NY", "addr:street": "86th Street", "amenity": "restaurant", "cuisine": "vietnamese", "height": "7.1", "name": "Ph\u1edf 86", "nycdoitt:bin": "3166816", "opening_hours": "Mo-Th,Su 10:30-22:30; Fr,Sa 10:30-23:00", "phone": "+1-347-587-5026"}}, {"type": "node", "id": 8379817815, "lat": 40.6041986, "lon": -73.9972444, "tags": {"addr:city": "Brooklyn", "addr:housenumber": "2033", "addr:postcode": "11214", "addr:state": "NY", "addr:street": "86th Street", "air_conditioning": "yes", "amenity": "restaurant", "cuisine": "asian;japanese;hong_kong;chinese", "delivery": "yes", "drink:beer": "yes", "drink:wine": "yes", "name": "H.K. Tea & Sushi", "nycdoitt:bin": "3345764", "opening_hours": "Mo-Su 11:00-22:00", "phone": "+1-718-265-7800", "takeaway": "yes"}}, {"type": "node", "id": 8379821930, "lat": 40.6051094, "lon": -73.9993888, "tags": {"addr:city": "Brooklyn", "addr:housenumber": "1946", "addr:postcode": "11214", "addr:state": "NY", "addr:street": "86th Street", "amenity": "restaurant", "cuisine": "chinese", "name": "Tak Hing", "nycdoitt:bin": "3166817", "opening_hours": "Mo-Su 08:00-21:00", "phone": "+1-718-722-1388"}}, {"type": "node", "id": 8379821931, "lat": 40.605295, "lon": -73.9997283, "tags": {"addr:city": "Brooklyn", "addr:housenumber": "1934", "addr:postcode": "11214", "addr:state": "NY", "addr:street": "86th Street", "amenity": "restaurant", "cuisine": "asian;japanese;chinese;thai;sushi", "drink:beer": "yes", "name": "Kushi", "nycdoitt:bin": "3166812", "opening_hours": "Mo-Su 11:00-22:00", "phone": "+1-718-975-3588", "website": "https://kushijapanese.com"}}, {"type": "node", "id": 8379835169, "lat": 40.603699, "lon": -73.995822, "tags": {"addr:city": "Brooklyn", "addr:housenumber": "8510", "addr:postcode": "11214", "addr:state": "NY", "addr:street": "21st Avenue", "amenity": "cafe", "cuisine": "dessert;tea;cake", "internet_access": "yes", "name": "Prince Tea House", "nycdoitt:bin": "3165850", "opening_hours": "Su-Th 12:00-00:00, Fr-Sa 12:00-01:00", "outdoor_seating": "yes", "phone": "+1-718-975-5077"}}, {"type": "node", "id": 9845209353, "lat": 40.6044692, "lon": -73.9976959, "tags": {"addr:city": "Brooklyn", "addr:postcode": "11214", "addr:state": "NY", "addr:street": "86th Street", "amenity": "cafe", "name": "Moge Tee"}}, {"type": "node", "id": 9845248539, "lat": 40.6043671, "lon": -73.9975255, "tags": {"addr:city": "Brooklyn", "addr:postcode": "11214", "addr:state": "NY", "addr:street": "86th Street", "amenity": "restaurant", "cuisine": "chinese", "name": "FuYuan Kitchen", "phone": "+1-718-618-0963"}}, {"type": "node", "id": 9845250397, "lat": 40.6026278, "lon": -73.9953132, "tags": {"addr:city": "Brooklyn", "addr:housenumber": "2134", "addr:postcode": "11214", "addr:state": "NY", "addr:street": "86th Street", "air_conditioning": "yes", "amenity": "cafe", "bar": "no", "brand": "Tiger Sugar", "brand:wikidata": "Q76099070", "check_date": "2024-04-22", "cuisine": "bubble_tea", "delivery": "yes", "drive_through": "no", "highchair": "no", "name": "Tiger Sugar", "outdoor_seating": "no", "payment:cash": "yes", "payment:credit_cards": "yes", "takeaway": "yes", "wheelchair": "yes"}}, {"type": "node", "id": 9845263124, "lat": 40.6039321, "lon": -73.9967999, "tags": {"addr:city": "Brooklyn", "addr:postcode": "11214", "addr:state": "NY", "addr:street": "86th Street", "amenity": "restaurant", "name": "Yomie's Rice x Yogurt"}}, {"type": "node", "id": 9845268954, "lat": 40.6039128, "lon": -73.9974468, "tags": {"addr:city": "Brooklyn", "addr:postcode": "11214", "addr:state": "NY", "addr:street": "86th Street", "amenity": "restaurant", "cuisine": "japanese", "name": "Ichi Sushi"}}, {"type": "node", "id": 9845278413, "lat": 40.6049946, "lon": -73.9985584, "tags": {"addr:city": "Brooklyn", "addr:housenumber": "1971", "addr:postcode": "11214", "addr:state": "NY", "addr:street": "86th Street", "amenity": "cafe", "branch": "1971 86th Street", "brand": "Starbucks", "brand:wikidata": "Q37158", "cuisine": "coffee_shop", "name": "Starbucks", "official_name": "Starbucks Coffee", "outdoor_seating": "no", "phone": "+1 718-266-1503", "ref": "7491", "takeaway": "yes", "website": "https://www.starbucks.com/store-locator/store/7491/1971-86th-street-1971-86th-street-brooklyn-ny-112143103-us"}}, {"type": "node", "id": 9845281851, "lat": 40.6038604, "lon": -73.9966803, "tags": {"addr:city": "Brooklyn", "addr:postcode": "11214", "addr:state": "NY", "addr:street": "86th Street", "amenity": "restaurant", "brand": "Ten Seconds Yunnan Rice Noodle", "brand:en": "Ten Seconds Yunnan Rice Noodle", "brand:wikidata": "Q119118794", "brand:zh": "\u5341\u79d2\u5230\u4e91\u5357\u8fc7\u6865\u7c73\u7ebf", "cuisine": "chinese", "name": "Ten Seconds Yunnan Rice Noodle", "name:en": "Ten Seconds Yunnan Rice Noodle", "name:zh": "\u5341\u79d2\u5230\u4e91\u5357\u8fc7\u6865\u7c73\u7ebf"}}, {"type": "node", "id": 9845281853, "lat": 40.6027982, "lon": -73.9955875, "tags": {"addr:city": "Brooklyn", "addr:postcode": "11214", "addr:state": "NY", "addr:street": "86th Street", "amenity": "restaurant", "name": "Triple Red Inc", "phone": "+1-718-483-9898"}}, {"type": "node", "id": 9845287453, "lat": 40.6047094, "lon": -73.9988058, "tags": {"addr:city": "Brooklyn", "addr:postcode": "11214", "addr:state": "NY", "addr:street": "86th Street", "amenity": "restaurant", "cuisine": "thai", "name": "Ricepot Thai Cookhouse"}}, {"type": "node", "id": 9845295604, "lat": 40.6039648, "lon": -73.9968544, "tags": {"addr:city": "Brooklyn", "addr:postcode": "11214", "addr:state": "NY", "addr:street": "86th Street", "amenity": "restaurant", "name": "Kings Kitchen", "phone": "+1-718-373-1188"}}, {"type": "node", "id": 9845743593, "lat": 40.6041325, "lon": -73.9971342, "tags": {"addr:city": "Brooklyn", "addr:housenumber": "2037", "addr:postcode": "11214", "addr:state": "NY", "addr:street": "86th Street", "amenity": "restaurant", "cuisine": "hawaiian", "internet_access": "yes", "internet_access:ssid": "Pokebowl Station", "name": "Pok\u00e9Bowl Station + Mars Tea", "opening_hours": "Su-Th 11:30-22:00; Fr-Sa 11:30-22:30", "phone": "+1-718-795-5828", "smoking": "no", "website": "https://pokebowlstation.com"}}, {"type": "node", "id": 9857380476, "lat": 40.602462, "lon": -74.0018331}, {"type": "node", "id": 9857380479, "lat": 40.6026494, "lon": -74.0019905}, {"type": "node", "id": 11047898482, "lat": 40.6047917, "lon": -73.998927, "tags": {"amenity": "restaurant", "cuisine": "chinese", "name": "Farmhouse Restaurant"}}, {"type": "node", "id": 11047933265, "lat": 40.6046873, "lon": -73.9987569, "tags": {"addr:housenumber": "1974", "addr:street": "86th Street", "amenity": "restaurant", "cuisine": "asian", "name": "New Hunan Wok"}}, {"type": "node", "id": 11864137705, "lat": 40.6052384, "lon": -73.997395, "tags": {"addr:city": "Brooklyn", "addr:housenumber": "824", "addr:postcode": "11214", "addr:state": "NY", "addr:street": "20th Avenue", "amenity": "restaurant", "cuisine": "chinese", "name": "Dun Huang Lanzhou Noodles", "opening_hours": "Mo-Su 11:00-22:00, Tu off", "website": "https://www.dhnoodles.com/"}}, {"type": "node", "id": 11864137706, "lat": 40.605407, "lon": -73.997224, "tags": {"addr:city": "Brooklyn", "addr:housenumber": "8413", "addr:postcode": "11214", "addr:state": "NY", "addr:street": "20th Avenue", "amenity": "cafe", "brand": "Yi Fang Tea", "brand:en": "Yi Fang Tea", "brand:wikidata": "Q66196395", "brand:zh": "\u4e00\u82b3\u6c34\u679c\u8336", "cuisine": "bubble_tea", "name": "Yi Fang Tea", "name:en": "Yi Fang Tea", "name:zh": "\u4e00\u82b3\u6c34\u679c\u8336", "opening_hours": "Mo-Su 11:00-19:00", "outdoor_seating": "no", "takeaway": "yes"}}, {"type": "node", "id": 12239587902, "lat": 40.6044042, "lon": -73.9982169, "tags": {"addr:city": "Brooklyn", "addr:floor": "G", "addr:housenumber": "2004", "addr:postcode": "11214", "addr:state": "NY", "addr:street": "86th Street", "air_conditioning": "yes", "amenity": "restaurant", "check_date": "2024-10-09", "cuisine": "chinese", "delivery": "yes", "level": "0", "name": "Cuihua Kitchen Inc", "outdoor_seating": "no", "payment:cash": "yes", "payment:credit_cards": "yes", "payment:ebt": "yes", "phone": "+1 347-312-4098", "smoking": "no", "takeaway": "yes", "website": "https://www.cuihuakitchen.com", "wheelchair": "yes"}}, {"type": "node", "id": 12586031248, "lat": 40.602813, "lon": -73.9956412, "tags": {"addr:city": "Brooklyn", "addr:housenumber": "2120", "addr:postcode": "11214", "addr:state": "NY", "addr:street": "86th Street", "amenity": "cafe", "cuisine": "bubble_tea;chinese", "name": "HeyTea", "opening_hours": "Mo-Su 10:00-20:00"}}, {"type": "node", "id": 12641196093, "lat": 40.6055736, "lon": -74.0001683, "tags": {"amenity": "restaurant", "cuisine": "chinese;bubble_tea", "delivery": "yes", "opening_hours": "Mo-Su 09:00-20:30", "phone": "+1-718-559-0326", "takeaway": "yes", "website": "https://www.happysalad1912.com"}}, {"type": "way", "id": 170606159, "nodes": [2715723199, 2715723197, 9857380476, 1817742277, 9857380479, 2715723195, 2715723199], "tags": {"amenity": "school"}}]}