{"version": 0.6, "generator": "Overpass API 0.7.62.8 e802775f", "osm3s": {"timestamp_osm_base": "2025-12-01T15:54:09Z", "copyright": "The data included in this document is from www.openstreetmap.org. The data is made available under ODbL."}, "elements": [{"type": "node", "id": 561949916, "lat": 40.7219733, "lon": -73.9973535}, {"type": "node", "id": 561949919, "lat": 40.7215845, "lon": -73.9974439}, {"type": "node", "id": 561949922, "lat": 40.7216467, "lon": -73.9976189}, {"type": "node", "id": 1241288717, "lat": 40.7264876, "lon": -73.9971363}, {"type": "node", "id": 1241288720, "lat": 40.7308705, "lon": -74.0003257}, {"type": "node", "id": 1241288722, "lat": 40.7275913, "lon": -73.9961808}, {"type": "node", "id": 1241288724, "lat": 40.7260797, "lon": -73.9963141}, {"type": "node", "id": 1241288726, "lat": 40.7303373, "lon": -73.9948898}, {"type": "node", "id": 1241288727, "lat": 40.7323333, "lon": -73.9977498}, {"type": "node", "id": 1241288730, "lat": 40.7281958, "lon": -73.9956713}, {"type": "node", "id": 1241288732, "lat": 40.7290798, "lon": -73.9948925}, {"type": "node", "id": 1241288733, "lat": 40.7286293, "lon": -73.993981}, {"type": "node", "id": 1241288735, "lat": 40.727804, "lon": -73.9948769}, {"type": "node", "id": 1241288737, "lat": 40.726278, "lon": -73.9973165}, {"type": "node", "id": 1241288740, "lat": 40.7259582, "lon": -73.9975834}, {"type": "node", "id": 1241288742, "lat": 40.7270368, "lon": -73.9996987}, {"type": "node", "id": 1241288744, "lat": 40.7258656, "lon": -73.9965}, {"type": "node", "id": 1241288746, "lat": 40.7312344, "lon": -73.994137}, {"type": "node", "id": 1241288747, "lat": 40.7318616, "lon": -73.999674}, {"type": "node", "id": 1241288753, "lat": 40.7271999, "lon": -73.995385}, {"type": "node", "id": 1241288754, "lat": 40.7295127, "lon": -73.9932296}, {"type": "node", "id": 1692433915, "lat": 40.7255206, "lon": -73.994722}, {"type": "node", "id": 2065455029, "lat": 40.722517, "lon": -73.997904, "tags": {"addr:city": "New York", "addr:housenumber": "72", "addr:postcode": "10002", "addr:street": "Spring Street", "amenity": "cafe", "brand": "Starbucks", "brand:wikidata": "Q37158", "contact:website": "https://www.starbucks.com/store-locator/store/9347/spring-street-at-crosby-st-72-spring-street-new-york-ny-100124019-us", "cuisine": "coffee_shop", "diet:vegan": "yes", "drink:soy_milk": "yes", "drive_through": "no", "name": "Starbucks", "official_name": "Starbucks Coffee", "operator": "Starbucks", "outdoor_seating": "no", "phone": "+1-212-219-2961", "smoking": "no", "takeaway": "yes", "toilets:wheelchair": "no", "wheelchair": "limited"}}, {"type": "node", "id": 2077984659, "lat": 40.7313204, "lon": -73.9985651}, {"type": "node", "id": 2109918801, "lat": 40.725584, "lon": -73.9947398, "tags": {"addr:city": "New York", "addr:housenumber": "337", "addr:state": "NY", "addr:street": "Lafayette Street", "amenity": "cafe", "cuisine": "sandwich", "diet:gluten_free": "yes", "diet:vegetarian": "yes", "drink:coffee": "yes", "drink:espresso": "yes", "drink:tea": "yes", "name": "Bite", "opening_hours": "Mo-Sa 07:30-21:00; Sa, Su 11:00-20:00", "outdoor_seating": "only", "takeaway": "only", "website": "https://www.bitenyc.com/"}}, {"type": "node", "id": 2146135062, "lat": 40.7219606, "lon": -73.9973196}, {"type": "node", "id": 2146135063, "lat": 40.7219759, "lon": -73.9973414}, {"type": "node", "id": 2154628288, "lat": 40.7216118, "lon": -73.997521}, {"type": "node", "id": 2154628290, "lat": 40.7216254, "lon": -73.9975591}, {"type": "node", "id": 2154628305, "lat": 40.7217218, "lon": -73.9975579}, {"type": "node", "id": 2154628308, "lat": 40.7217651, "lon": -73.9975227}, {"type": "node", "id": 2154628313, "lat": 40.7217905, "lon": -73.997502}, {"type": "node", "id": 2154628317, "lat": 40.721821, "lon": -73.9974772}, {"type": "node", "id": 2154628324, "lat": 40.7219675, "lon": -73.9973218}, {"type": "node", "id": 2154628325, "lat": 40.721973, "lon": -73.9973299}, {"type": "node", "id": 2180708702, "lat": 40.7253771, "lon": -73.9947942}, {"type": "node", "id": 2547036417, "lat": 40.726927, "lon": -73.9957148, "tags": {"addr:housenumber": "651", "addr:postcode": "10012", "addr:street": "Broadway", "amenity": "cafe", "cuisine": "bagel;breakfast;sandwich", "drink:coffee": "yes", "drink:espresso": "yes", "name": "Grabenstein's Bagels", "outdoor_seating": "sidewalk"}}, {"type": "node", "id": 2547041115, "lat": 40.7246643, "lon": -73.9958567, "tags": {"addr:city": "New York", "addr:housenumber": "300", "addr:postcode": "10012", "addr:state": "NY", "addr:street": "Lafayette Street", "name": "Microsoft SOHO Office", "office": "company"}}, {"type": "node", "id": 2547041173, "lat": 40.7254574, "lon": -73.994857}, {"type": "node", "id": 2547067899, "lat": 40.7245967, "lon": -73.9945106, "tags": {"addr:housenumber": "55", "addr:postcode": "10012", "addr:street": "East Houston Street", "alt_name": "Emilio's Ballato", "amenity": "restaurant", "contact:facebook": "https://www.facebook.com/emiliosballato/", "cuisine": "italian", "name": "Ballato", "phone": "+1-212-274-8881"}}, {"type": "node", "id": 2547109169, "lat": 40.7261039, "lon": -73.9987153, "tags": {"addr:city": "New York", "addr:housenumber": "145", "addr:postcode": "10012", "addr:state": "NY", "addr:street": "Greene Street", "amenity": "cafe", "cuisine": "coffee_shop", "internet_access": "wlan", "internet_access:fee": "no", "name": "Felix Roasting Co.", "payment:contactless": "yes", "payment:credit_cards": "yes", "reservation": "no", "smoking": "no", "takeaway": "yes", "toilets": "yes", "website": "https://felixroastingco.com/", "wheelchair": "no"}}, {"type": "node", "id": 2547110366, "lat": 40.7266689, "lon": -73.9999718, "tags": {"addr:housenumber": "475", "addr:street": "West Broadway", "amenity": "restaurant", "branch": "SoHo", "cocktails": "yes", "cuisine": "mexican", "diet:vegetarian": "yes", "drink:liquor": "yes", "internet_access": "wlan", "internet_access:fee": "no", "name": "Dos Caminos", "opening_hours": "We, Th 11:30-23:00; Fr, Sa 11:30-00:00; Mo, Tu, Su 11:30-22:00", "outdoor_seating": "yes", "payment:credit_cards": "yes", "phone": "+1-212-277-4300", "source": "survey", "toilets": "yes", "toilets:unisex": "yes", "toilets:wheelchair": "no", "website": "https://www.doscaminos.com/soho/", "wheelchair": "yes"}}, {"type": "node", "id": 2547110379, "lat": 40.7268477, "lon": -74.0001615, "tags": {"amenity": "cafe", "brand": "Starbucks", "brand:wikidata": "Q37158", "contact:website": "https://www.starbucks.com/store-locator/store/6995/houston-w-broadway-482-west-broadway-new-york-ny-100125333-us", "cuisine": "coffee_shop", "name": "Starbucks", "official_name": "Starbucks Coffee", "source": "survey", "takeaway": "yes", "wheelchair": "yes"}}, {"type": "node", "id": 2547223602, "lat": 40.725385, "lon": -74.000397, "tags": {"addr:city": "New York City", "addr:housenumber": "130", "addr:postcode": "10012", "addr:state": "NY", "addr:street": "Prince Street", "amenity": "restaurant", "name": "Manuela", "phone": "+1-917-245-2770", "website": "https://manuela-nyc.com"}}, {"type": "node", "id": 2547241551, "lat": 40.723501, "lon": -73.9963078, "tags": {"addr:housenumber": "54", "addr:postcode": "10012", "addr:street": "Prince Street", "amenity": "restaurant", "contact:phone": "+1-212-380-8202", "cuisine": "italian", "name": "La Pecora Bianca", "outdoor_seating": "sidewalk;street", "website": "https://www.lapecorabianca.com"}}, {"type": "node", "id": 2547241584, "lat": 40.7223038, "lon": -73.9962281, "tags": {"addr:housenumber": "219", "addr:postcode": "10012", "addr:street": "Mulberry Street", "amenity": "restaurant", "cuisine": "american;breakfast", "name": "Ruby's", "opening_hours": "Mo-Su 09:00-23:00", "website": "https://www.rubyscafe.com/location/soho/"}}, {"type": "node", "id": 2547241611, "lat": 40.7239788, "lon": -73.9964591, "tags": {"addr:housenumber": "270", "addr:postcode": "10012", "addr:street": "Lafayette Street", "amenity": "cafe", "brand": "La Colombe Coffee Roasters", "brand:wikidata": "Q23461663", "cuisine": "coffee_shop", "name": "La Colombe Coffee Roasters", "name:en": "La Colombe Coffee Roasters", "short_name": "La Colombe", "takeaway": "yes"}}, {"type": "node", "id": 2547241666, "lat": 40.7221019, "lon": -73.9964217, "tags": {"addr:city": "New York", "addr:housenumber": "51", "addr:postcode": "10012", "addr:state": "NY", "addr:street": "Spring Street", "amenity": "restaurant", "check_date": "2024-11-22", "cuisine": "pizza", "name": "Upside Pizza", "phone": "+19174092989", "website": "https://www.upsidepizza.com/"}}, {"type": "node", "id": 2547242036, "lat": 40.7222872, "lon": -73.9973743, "tags": {"addr:city": "New York", "addr:housenumber": "226", "addr:postcode": "10012", "addr:state": "NY", "addr:street": "Lafayette Street", "amenity": "restaurant", "branch": "Soho", "brand:wikidata": "Q6110826", "cuisine": "mediterranean;american;brunch", "drink:beer": "draught", "drink:liquor": "yes", "drink:wine": "yes", "name": "Jack\u2019s Wife Freda", "opening_hours": "Mo-We 8:30-22:00, Th-Sa 8:30-23:00, Su 8:30-21:00", "phone": "+1-212-510-8550", "takeaway": "yes", "website": "https://jackswifefreda.com"}}, {"type": "node", "id": 2547243582, "lat": 40.7214275, "lon": -73.9960058}, {"type": "node", "id": 2547243601, "lat": 40.7214672, "lon": -73.9961798}, {"type": "node", "id": 2547243617, "lat": 40.7215218, "lon": -73.9961583}, {"type": "node", "id": 2547243630, "lat": 40.7215606, "lon": -73.9963288}, {"type": "node", "id": 2547243673, "lat": 40.7222613, "lon": -73.9947577}, {"type": "node", "id": 2547243690, "lat": 40.7217205, "lon": -73.9958906}, {"type": "node", "id": 2547243815, "lat": 40.7219779, "lon": -73.9945333}, {"type": "node", "id": 2547243829, "lat": 40.7220155, "lon": -73.9947}, {"type": "node", "id": 2547243866, "lat": 40.7220871, "lon": -73.9950104}, {"type": "node", "id": 2547243880, "lat": 40.722112, "lon": -73.9951211}, {"type": "node", "id": 2547243887, "lat": 40.7221217, "lon": -73.9951642}, {"type": "node", "id": 2547243889, "lat": 40.722124, "lon": -73.995174}, {"type": "node", "id": 2547244038, "lat": 40.7222858, "lon": -73.9948725}, {"type": "node", "id": 2547244055, "lat": 40.7223001, "lon": -73.9949388}, {"type": "node", "id": 2547244073, "lat": 40.7223305, "lon": -73.9950801}, {"type": "node", "id": 2547244077, "lat": 40.7223325, "lon": -73.9950896}, {"type": "node", "id": 2547244084, "lat": 40.7223337, "lon": -73.994392}, {"type": "node", "id": 2547244131, "lat": 40.7223849, "lon": -73.9946315}, {"type": "node", "id": 2547244138, "lat": 40.7223467, "lon": -73.9944528}, {"type": "node", "id": 2555120465, "lat": 40.7218498, "lon": -74.0008229, "tags": {"addr:city": "New York", "addr:housenumber": "54", "addr:postcode": "10013", "addr:street": "Mercer Street", "amenity": "cafe", "internet_access": "yes", "internet_access:fee": "no", "name": "Bibliotheque Cafe & Winebar", "opening_hours": "Mo-Su 10:00-22:00", "shop": "books", "website": "https://www.bibliothequenyc.com/"}}, {"type": "node", "id": 2555120982, "lat": 40.7215756, "lon": -74.0012837}, {"type": "node", "id": 2555120992, "lat": 40.7216319, "lon": -74.0012361}, {"type": "node", "id": 2555121001, "lat": 40.7216489, "lon": -74.0014333}, {"type": "node", "id": 2555121005, "lat": 40.7217084, "lon": -74.0015547}, {"type": "node", "id": 2555121010, "lat": 40.7217231, "lon": -74.0015847}, {"type": "node", "id": 2555121017, "lat": 40.7217739, "lon": -74.0015259}, {"type": "node", "id": 2555121020, "lat": 40.7217794, "lon": -74.0015371}, {"type": "node", "id": 2578562385, "lat": 40.7259353, "lon": -73.9942882, "tags": {"addr:city": "New York", "addr:housenumber": "49", "addr:postcode": "10012", "addr:street": "Bleecker Street", "name": "Turtle Conservancy", "office": "company", "opening_hours": "Mo-Fr 10:00-18:00", "phone": "+1-212-353-5060", "website": "https://www.turtleconservancy.org/"}}, {"type": "node", "id": 3214617212, "lat": 40.7216382, "lon": -73.9972123, "tags": {"addr:city": "New York", "addr:housenumber": "19", "addr:postcode": "10012", "addr:state": "NY", "addr:street": "Cleveland Place", "amenity": "restaurant", "cuisine": "israeli;mediterranean", "name": "19 Cleveland", "opening_hours": "Mo-Su 11:00-23:00", "outdoor_seating": "sidewalk;street", "phone": "+1-646-823-9227", "reservation": "yes", "website": "https://19cleveland.com/"}}, {"type": "node", "id": 3215162128, "lat": 40.7217594, "lon": -73.9978239, "tags": {"amenity": "restaurant", "name": "Caf\u00e9 Select", "website": "http://www.cafeselectnyc.com/"}}, {"type": "node", "id": 3215162129, "lat": 40.7219323, "lon": -73.9976726, "tags": {"addr:housenumber": "218", "addr:street": "Lafayette Street", "amenity": "restaurant", "cocktails": "yes", "cuisine": "italian", "drink:beer": "yes", "drink:coffee": "yes", "drink:liquor": "yes", "drink:wine": "yes", "email": "info@osteriamorini.com", "happy_hours": "Mo-Th 15:00-18:00", "internet_access": "no", "lunch": "Mo-Fr 12:00-15:00", "name": "Osteria Morini", "opening_hours": "Mo 12:00-23:00; Tu-Th 12:00-22:30; Fr 12:00-23:30; Sa 11:30-23:30; Su 11:30-22:00", "payment:cash": "yes", "payment:credit_cards": "yes", "payment:debit_cards": "yes", "phone": "+1-212-965-8777", "reservation": "recommended", "takeaway": "yes", "toilets": "yes", "toilets:access": "customers", "toilets:unisex": "yes", "toilets:wheelchair": "yes", "website": "https://osteriamorini.com/soho-nyc/"}}, {"type": "node", "id": 3573482099, "lat": 40.7246074, "lon": -73.9987503, "tags": {"alt_name": "Fanelli's", "amenity": "restaurant", "bar": "yes", "check_date": "2024-02-22", "cocktails": "yes", "cuisine": "italian;pub", "drink:beer": "draught", "drink:liquor": "yes", "drink:wine": "yes", "name": "Fanelli Cafe", "phone": "+1-212-226-9412", "toilets": "yes", "toilets:unisex": "no", "toilets:wheelchair": "no", "walkup_window": "yes", "wheelchair": "limited", "wikidata": "Q19868052", "wikipedia": "en:Fanelli Cafe"}}, {"type": "node", "id": 3608032646, "lat": 40.7226578, "lon": -73.9981644, "tags": {"addr:housenumber": "80", "addr:street": "Spring Street", "amenity": "restaurant", "cuisine": "french", "name": "Balthazar", "wikidata": "Q4852657"}}, {"type": "node", "id": 3608616551, "lat": 40.7229657, "lon": -73.99576, "tags": {"addr:housenumber": "244", "addr:street": "Mulberry Street", "amenity": "restaurant", "branch": "Nolita", "cocktails": "yes", "cuisine": "sandwich;salad;brunch", "drink:beer": "yes", "drink:coffee": "yes", "drink:tea": "yes", "drink:wine": "yes", "happy_hours": "Su-Mo 16:00-18:00", "internet_access": "wlan", "internet_access:fee": "no", "name": "The Grey Dog", "opening_hours": "Mo-Su 08:00-21:00", "outdoor_seating": "yes", "payment:cash": "yes", "payment:credit_cards": "yes", "phone": "+1-212-966-1060", "takeaway": "yes", "toilets": "yes", "toilets:access": "permissive", "toilets:unisex": "yes", "toilets:wheelchair": "yes", "website": "https://www.thegreydog.com/location/the-grey-dog-nolita/", "wheelchair": "yes"}}, {"type": "node", "id": 3611236718, "lat": 40.7217467, "lon": -73.9964556, "tags": {"addr:city": "New York", "addr:housenumber": "209", "addr:postcode": "10012", "addr:street": "Mulberry Street", "amenity": "restaurant", "cuisine": "thai", "name": "Wan Wan", "opening_hours": "Mo-We 11:30-15:00,17:00-22:00; Th-Fr 11:30-15:00,17:00-23:00; Sa 12:00-15:00,17:00-23:00; Su 12:00-15:00,17:00-22:00", "phone": "+1-212-888-6278", "website": "https://www.wanwannyc.com/"}}, {"type": "node", "id": 3612291899, "lat": 40.7228449, "lon": -73.9942284, "tags": {"addr:city": "New York", "addr:housenumber": "17", "addr:postcode": "10012", "addr:street": "Prince Street", "amenity": "restaurant", "bar": "yes", "cocktails": "yes", "cuisine": "cuban", "drink:beer": "yes", "drink:coffee": "yes", "drink:espresso": "yes", "drink:liquor": "yes", "name": "Caf\u00e9 Habana", "opening_hours": "Mo-Su 10:00-23:00", "phone": "+1-212-625-2001", "toilets": "yes", "website": "https://www.cafehabana.com/menu/cafe-habana-nyc/"}}, {"type": "node", "id": 3825544457, "lat": 40.7252194, "lon": -73.9967722, "tags": {"addr:city": "New York", "addr:housenumber": "600", "addr:postcode": "10018", "addr:state": "NY", "addr:street": "Broadway", "name": "Code Academy", "office": "company", "website": "https://www.codecademy.com"}}, {"type": "node", "id": 4006308109, "lat": 40.7255749, "lon": -73.9951521, "tags": {"amenity": "restaurant", "name": "Gato", "phone": "+1-212-334-6400", "website": "http://gatonyc.com/"}}, {"type": "node", "id": 4146329589, "lat": 40.7218093, "lon": -73.9979174, "tags": {"addr:housenumber": "212", "addr:street": "Lafayette Street", "amenity": "bar", "name": "Apr\u00e8s-Ski Fondue Chalet at Caf\u00e9 Select"}}, {"type": "node", "id": 4243416297, "lat": 40.7248056, "lon": -73.998682, "tags": {"addr:housenumber": "99", "addr:postcode": "10012", "addr:street": "Prince Street", "amenity": "restaurant", "cuisine": "italian", "name": "Sartiano\u2019s", "phone": "+1 212-658-1155", "website": "https://sartianos.com"}}, {"type": "node", "id": 4305816205, "lat": 40.7227225, "lon": -73.9961142, "tags": {"air_conditioning": "yes", "amenity": "restaurant", "bar": "yes", "brewery": "yes", "cuisine": "pizza", "name": "Rubirosa"}}, {"type": "node", "id": 4501924442, "lat": 40.7220839, "lon": -73.9944914, "tags": {"barrier": "gate"}}, {"type": "node", "id": 4501924444, "lat": 40.7222723, "lon": -73.9951139, "tags": {"barrier": "gate"}}, {"type": "node", "id": 4506648692, "lat": 40.721733, "lon": -73.9944139, "tags": {"addr:city": "New York", "addr:housenumber": "194", "addr:postcode": "10012", "addr:state": "NY", "addr:street": "Elizabeth Street", "air_conditioning": "yes", "amenity": "restaurant", "bar": "yes", "cuisine": "italian", "delivery": "yes", "diet:vegetarian": "yes", "level": "-1;0", "microbrewery": "no", "name": "Peasant", "opening_hours": "Tu-Th 17:00-21:30; Fr-Sa 17:00-22:30", "outdoor_seating": "yes", "phone": "+1 212 965 9511", "reservation": "yes", "smoking": "no", "takeaway": "yes", "website": "https://www.peasantnyc.com", "wheelchair": "yes"}}, {"type": "node", "id": 4849663224, "lat": 40.7234888, "lon": -73.9957917, "tags": {"addr:city": "New York", "addr:housenumber": "47", "addr:postcode": "10012", "addr:street": "Prince Street", "amenity": "restaurant", "cuisine": "japanese", "name": "Momoya", "phone": "+1 646-429-9315", "website": "https://momoyanyc.com"}}, {"type": "node", "id": 4937329121, "lat": 40.7229906, "lon": -73.9945851, "tags": {"addr:city": "New York", "addr:housenumber": "27", "addr:postcode": "10012", "addr:state": "NY", "addr:street": "Prince Street", "amenity": "restaurant", "cuisine": "pizza", "delivery": "yes", "name": "Prince Street Pizza", "opening_hours": "Su-Th 11:30-23:00; Fr-Sa 11:30-04:00", "phone": "+1 212-966-1960", "takeaway": "yes", "website": "https://www.princestreetpizzamenu.com/"}}, {"type": "node", "id": 4947130221, "lat": 40.7219052, "lon": -73.9958088, "tags": {"amenity": "restaurant", "name": "Rice to Riches", "name:en": "Rice to Riches"}}, {"type": "node", "id": 5067720936, "lat": 40.7255394, "lon": -73.9947919}, {"type": "node", "id": 5152316163, "lat": 40.7230602, "lon": -73.9973087, "tags": {"amenity": "restaurant"}}, {"type": "node", "id": 5159433790, "lat": 40.7218537, "lon": -73.9962127}, {"type": "node", "id": 5159433791, "lat": 40.7217375, "lon": -73.9959316, "tags": {"barrier": "gate"}}, {"type": "node", "id": 5193508103, "lat": 40.7246694, "lon": -73.9983531, "tags": {"addr:city": "New York", "addr:housenumber": "142", "addr:state": "NY", "addr:street": "Mercer Street", "amenity": "restaurant", "cuisine": "seafood", "name": "Lure Fishbar", "outdoor_seating": "yes", "phone": "+1-212-431-7676", "website": "https://www.lurefishbar.com"}}, {"type": "node", "id": 5209395822, "lat": 40.7265987, "lon": -73.999651, "tags": {"addr:city": "New York City", "addr:housenumber": "77", "addr:postcode": "10012", "addr:state": "NY", "addr:street": "West Houston Street", "amenity": "restaurant", "cuisine": "moroccan", "name": "Ayah Restaurant", "phone": "+1 212-501-8900", "website": "https://ayahrestaurant.com"}}, {"type": "node", "id": 5273490726, "lat": 40.7221177, "lon": -73.9975189, "tags": {"addr:housenumber": "224", "addr:street": "Lafayette Street", "amenity": "restaurant", "branch": "SoHo", "cocktails": "yes", "cuisine": "mediterranean", "diet:vegetarian": "yes", "drink:beer": "yes", "drink:coffee": "yes", "drink:tea": "yes", "email": "info@jackswifefreda.com", "name": "Lucky's", "not:brand:wikidata": "Q6110826", "opening_hours": "We-Sa 08:30-00:00; Su 08:30-22:00; Mo, Tu 08:30-23:00", "organic": "yes", "outdoor_seating": "yes", "phone": "+1-212-510-8550", "reservation": "recommended", "takeaway": "yes", "website": "https://jackswifefreda.com/", "wheelchair": "no"}}, {"type": "node", "id": 5611937541, "lat": 40.7265689, "lon": -73.9996226, "tags": {"addr:city": "New York", "addr:housenumber": "71", "addr:postcode": "10012", "addr:state": "NY", "addr:street": "West Houston Street", "amenity": "cafe", "branch": "Soho", "cuisine": "coffee_shop", "drink:coffee": "yes", "drink:tea": "yes", "email": "soho@birchcoffee.com", "internet_access": "wlan", "name": "Birch Coffee", "opening_hours": "Mo-Fr 07:00-18:00, Sa-Su 08:00-18:00", "payment:cash": "yes", "payment:credit_cards": "yes", "phone": "+1 212-686-1444", "website": "http://birchcoffee.com/locations/soho/", "wheelchair": "yes"}}, {"type": "node", "id": 5618806821, "lat": 40.7243026, "lon": -73.9973808, "tags": {"addr:city": "New York", "addr:housenumber": "568", "addr:postcode": "10012", "addr:state": "NY", "addr:street": "Broadway", "check_date": "2025-05-03", "name": "Zocdoc", "office": "company", "website": "https://www.zocdoc.com"}}, {"type": "node", "id": 5628809026, "lat": 40.7262525, "lon": -74.0001116, "tags": {"addr:housenumber": "463", "addr:street": "West Broadway", "amenity": "restaurant", "cuisine": "seafood;bagel", "delivery": "yes", "name": "Sadelle\u2019s", "opening_hours": "Mo-We 08:30-14:30; Th-Sa 08:30-20:30; Su 08:30-17:00", "phone": "+1-212-776-4926", "reservation": "yes", "website": "https://www.sadelles.com/", "wheelchair": "yes"}}, {"type": "node", "id": 5642382126, "lat": 40.7257638, "lon": -74.0011009, "tags": {"addr:housenumber": "152", "addr:street": "Prince Street", "amenity": "cafe", "cuisine": "yogurt;coffee_shop", "fireplace": "yes", "indoor_seating": "yes", "name": "Chobani SoHo", "opening_hours": "Mo-Fr 07:30-19:00; Sa, Su 08:30-19:00", "outdoor_seating": "no", "phone": "+1-212-364-3970", "takeaway": "yes", "website": "https://chobani.com/", "wheelchair": "yes"}}, {"type": "node", "id": 5788137439, "lat": 40.7266858, "lon": -73.9959215, "tags": {"addr:housenumber": "643", "addr:street": "Broadway", "amenity": "cafe", "branch": "& Cru", "brand": "CoCo", "brand:wikidata": "Q65084369", "cocktails": "yes", "cuisine": "bubble_tea", "delivery": "yes", "diet:vegetarian": "yes", "drink:beer": "yes", "drink:coffee": "yes", "drink:liquor": "yes", "drink:tea": "yes", "email": "info@everyday-hospitality.com", "name": "CoCo Fresh Tea & Juice", "opening_hours": "Mo-Th 08:00-21:00; Fr 08:00-22:00; Sa 09:00-22:00; Su 09:00-21:00", "organic": "yes", "phone": "+1-212-614-3170", "reservation": "yes", "short_name": "CoCo", "takeaway": "yes", "toilets": "yes", "toilets:unisex": "no", "website": "https://www.cocoandcru.com/", "wheelchair": "yes"}}, {"type": "node", "id": 5788183778, "lat": 40.7267077, "lon": -73.9959009, "tags": {"addr:housenumber": "643", "addr:street": "Broadway", "amenity": "bar", "cocktails": "yes", "drink:beer": "yes", "email": "events@drinksweetwater.com", "level": "-1", "name": "Sweetwater Social", "opening_hours": "Tu, We 17:00-00:00; Th-Sa 17:00-02:00", "payment:debit_cards": "yes", "phone": "+1-212-253-0477", "reservation": "yes", "toilets": "yes", "toilets:unisex": "no", "toilets:wheelchair": "no", "website": "https://www.drinksweetwater.com/", "wheelchair": "no"}}, {"type": "node", "id": 5788273495, "lat": 40.726876, "lon": -73.995752, "tags": {"addr:housenumber": "649", "addr:postcode": "10012", "addr:street": "Broadway", "amenity": "cafe", "brand": "Gregorys Coffee", "brand:wikidata": "Q28229714", "cuisine": "coffee_shop", "drink:coffee": "yes", "drink:espresso": "yes", "drink:tea": "yes", "name": "Gregorys Coffee", "note": "lack of apostrophe in name is not a typo", "opening_hours": "Mo-Fr 07:00-18:00, Sa-Su 08:00-17:00", "payment:contactless": "yes", "payment:debit_cards": "yes", "phone": "+1-646-478-7258", "website": "https://gregoryscoffee.com/", "wheelchair": "yes"}}, {"type": "node", "id": 5792264308, "lat": 40.726208, "lon": -73.9954844, "tags": {"addr:housenumber": "68", "addr:street": "Bleecker Street", "amenity": "cafe", "cuisine": "breakfast;sandwich", "drink:coffee": "yes", "drink:tea": "yes", "email": "info@cafeangeliquenyc.com", "fax": "+1-212-475-4334", "internet_access": "wlan", "internet_access:fee": "no", "name": "Cafe Angelique", "opening_hours": "Mo-Fr 07:00-19:00; Sa, Su 08:00-17:00", "phone": "+1-212-475-3500", "takeaway": "yes", "website": "http://cafeangeliquenyc.com/"}}, {"type": "node", "id": 5796438080, "lat": 40.7257887, "lon": -74.0011724, "tags": {"addr:housenumber": "154", "addr:street": "Prince Street", "amenity": "cafe", "brand": "La Colombe Coffee Roasters", "brand:wikidata": "Q23461663", "cuisine": "coffee_shop", "drink:coffee": "served;retail", "drink:tea": "yes", "email": "help@lacolombe.net", "name": "La Colombe Coffee Roasters", "opening_hours": "Mo-Fr 07:30-19:00; Sa, Su 08:30-19:00", "payment:credit_cards": "yes", "payment:debit_cards": "yes", "phone": "+1-646-690-7340", "short_name": "La Colombe", "takeaway": "yes", "website": "https://lacolombe.com/", "wheelchair": "yes"}}, {"type": "node", "id": 6371442486, "lat": 40.7246217, "lon": -73.9947736, "tags": {"amenity": "restaurant", "cuisine": "american", "drink:liquor": "yes", "drink:wine": "yes", "level": "1", "name": "Estela", "opening_hours": "Mo-Th 17:00-20:30; Fr-Su 11:30-14:30,17:00-20:30", "website": "https://estelanyc.com"}}, {"type": "node", "id": 6419733289, "lat": 40.7231443, "lon": -73.9947458, "tags": {"addr:housenumber": "242", "addr:postcode": "10012", "addr:street": "Mott Street", "amenity": "cafe", "branch": "New York City", "check_date": "2025-04-29", "contact:instagram": "cafegitaneny", "cuisine": "moroccan", "name": "Caf\u00e9 Gitane", "opening_hours": "Mo-Fr 12:00-20:00; Sa 10:00-22:00; Su 10:00-20:00", "phone": "+1 212-334-9552", "website": "https://www.cafegitanenyc.com/"}}, {"type": "node", "id": 6568736486, "lat": 40.7230403, "lon": -73.9957307, "tags": {"amenity": "restaurant", "branch": "Mulberry Street", "cocktails": "yes", "cuisine": "italian", "drink:beer": "yes", "drink:liquor": "yes", "drink:wine": "yes", "happy_hours": "Mo-Fr 15:00-19:00", "name": "Parm", "opening_hours": "Mo-Su 11:00-22:00", "outdoor_seating": "street", "website": "https://www.parmitalian.com/locations/mulberry-street/"}}, {"type": "node", "id": 6568743285, "lat": 40.7219556, "lon": -73.996497, "tags": {"amenity": "restaurant", "brand": "CAVA", "brand:wikidata": "Q85751038", "cuisine": "mediterranean", "name": "CAVA", "opening_hours": "Tu-Sa 10:45-22:00", "phone": "+1-718-502-9262", "takeaway": "yes", "website": "https://cava.com/locations/nolita-ny"}}, {"type": "node", "id": 6568795185, "lat": 40.7219227, "lon": -73.9964156, "tags": {"addr:city": "New York", "addr:housenumber": "48", "addr:postcode": "10012", "addr:state": "NY", "addr:street": "Spring Street", "air_conditioning": "yes", "alt_name": "Shark Bar", "amenity": "bar", "cocktails": "yes", "drink:beer": "draught", "drink:liquor": "yes", "drink:wine": "yes", "level": "0", "name": "Spring Lounge", "opening_hours": "Mo-Sa 08:00-04:00, Su 10:00-04:00", "outdoor_seating": "yes", "payment:cash": "yes", "payment:credit_cards": "yes", "phone": "+1-212-965-1774", "smoking": "no", "website": "https://thespringlounge.com"}}, {"type": "node", "id": 6568807585, "lat": 40.7258103, "lon": -73.9981248, "tags": {"amenity": "bar", "name": "b&b winebar"}}, {"type": "node", "id": 6634227885, "lat": 40.7254165, "lon": -73.9948896}, {"type": "node", "id": 7077578988, "lat": 40.7241895, "lon": -73.9945177, "tags": {"amenity": "restaurant", "name": "Cafeta Social Club Italian Restaurant"}}, {"type": "node", "id": 7150082985, "lat": 40.7238897, "lon": -73.9967151, "tags": {"amenity": "cafe", "name": "T2 tea"}}, {"type": "node", "id": 7906873339, "lat": 40.7244928, "lon": -73.9950083, "tags": {"amenity": "restaurant", "bar": "yes", "cuisine": "spanish", "name": "Socarrat Paella Bar"}}, {"type": "node", "id": 8000650772, "lat": 40.724629, "lon": -73.9946134, "tags": {"addr:housenumber": "51", "addr:street": "East Houston Street", "amenity": "bar", "dog": "no", "happy_hours": "17:00-20:00", "name": "Milano's Bar", "toilets": "customers"}}, {"type": "node", "id": 8309478837, "lat": 40.7317921, "lon": -73.9965745, "tags": {"barrier": "kerb", "kerb": "lowered", "tactile_paving": "no"}}, {"type": "node", "id": 8486713328, "lat": 40.7217995, "lon": -73.9943861, "tags": {"amenity": "restaurant", "bar": "yes", "cocktails": "yes", "cuisine": "japanese;breakfast;eclectic", "drink:beer": "draught", "drink:liquor": "yes", "drink:sake": "yes", "drink:wine": "yes", "name": "Lovely Day", "phone": "+1-212-925-3310", "website": "https://www.lovelydaynyc.com"}}, {"type": "node", "id": 9063322817, "lat": 40.722565, "lon": -73.996178, "tags": {"amenity": "restaurant", "name": "5ive Spice"}}, {"type": "node", "id": 9138110226, "lat": 40.7259782, "lon": -73.9950281, "tags": {"amenity": "bar", "name": "Bleecker Street Bar"}}, {"type": "node", "id": 9332464948, "lat": 40.723302, "lon": -73.9965416, "tags": {"addr:housenumber": "265", "addr:postcode": "10012", "addr:street": "Lafayette Street", "amenity": "restaurant", "cuisine": "italian", "name": "Sant Ambroeus", "outdoor_seating": "sidewalk;street", "phone": "+1-212-966-2770", "website": "https://www.santambroeus.com"}}, {"type": "node", "id": 10064144417, "lat": 40.7225249, "lon": -73.9974462, "tags": {"addr:city": "New York", "addr:housenumber": "67", "addr:postcode": "10012", "addr:state": "NY", "addr:street": "Spring Street", "amenity": "cafe", "brand": "Joe & The Juice", "brand:wikidata": "Q26221514", "cuisine": "coffee_shop", "name": "Joe & The Juice", "opening_hours": "Mo-Su 07:00-21:00", "takeaway": "yes", "website": "https://orders.joejuice.com/store/eb4e5146-3683-4480-b8ca-4aff4b48cf84"}}, {"type": "node", "id": 10692222096, "lat": 40.7254249, "lon": -73.9947701}, {"type": "node", "id": 10692222097, "lat": 40.7254984, "lon": -73.9948244}, {"type": "node", "id": 10692222098, "lat": 40.7254728, "lon": -73.994746}, {"type": "node", "id": 10827603587, "lat": 40.7249264, "lon": -73.9963375, "tags": {"addr:housenumber": "136", "addr:postcode": "10012", "addr:street": "Crosby Street", "level": "7", "name": "Konrad", "office": "company", "website": "https://www.konrad.com"}}, {"type": "node", "id": 11055557246, "lat": 40.7314996, "lon": -73.9998038}, {"type": "node", "id": 11055557247, "lat": 40.7315606, "lon": -73.9999256}, {"type": "node", "id": 11055557248, "lat": 40.7306453, "lon": -73.9998778}, {"type": "node", "id": 11055557249, "lat": 40.7301385, "lon": -74.0003047}, {"type": "node", "id": 11055557250, "lat": 40.7299929, "lon": -74.0000136}, {"type": "node", "id": 11055557251, "lat": 40.7297981, "lon": -73.9996488}, {"type": "node", "id": 11055557255, "lat": 40.7299434, "lon": -74.0000558}, {"type": "node", "id": 11055557256, "lat": 40.7298505, "lon": -73.99987}, {"type": "node", "id": 11055557257, "lat": 40.7298906, "lon": -73.9998359}, {"type": "node", "id": 11055557258, "lat": 40.7301261, "lon": -73.9993779}, {"type": "node", "id": 11055557259, "lat": 40.7293308, "lon": -73.9977822}, {"type": "node", "id": 11055557264, "lat": 40.7273587, "lon": -73.9928387}, {"type": "node", "id": 11055557266, "lat": 40.7282055, "lon": -73.9943399}, {"type": "node", "id": 11055557267, "lat": 40.7278815, "lon": -73.9936841}, {"type": "node", "id": 11055557268, "lat": 40.7278098, "lon": -73.9937458}, {"type": "node", "id": 11055557269, "lat": 40.7275823, "lon": -73.9926514}, {"type": "node", "id": 11055557270, "lat": 40.7278835, "lon": -73.9932686}, {"type": "node", "id": 11055557271, "lat": 40.7284584, "lon": -73.9927843}, {"type": "node", "id": 11055557272, "lat": 40.7281807, "lon": -73.9918557}, {"type": "node", "id": 11055557273, "lat": 40.7280614, "lon": -73.9919881}, {"type": "node", "id": 11055557274, "lat": 40.7276541, "lon": -73.9915606}, {"type": "node", "id": 11055557275, "lat": 40.7279048, "lon": -73.9920986}, {"type": "node", "id": 11055557276, "lat": 40.7279927, "lon": -73.9914629}, {"type": "node", "id": 11055557278, "lat": 40.7282805, "lon": -73.9917677}, {"type": "node", "id": 11055557279, "lat": 40.7283413, "lon": -73.9918897}, {"type": "node", "id": 11055557280, "lat": 40.728307, "lon": -73.9919191}, {"type": "node", "id": 11055557281, "lat": 40.7286463, "lon": -73.9926141}, {"type": "node", "id": 11055557282, "lat": 40.7297518, "lon": -73.9916816}, {"type": "node", "id": 11055557283, "lat": 40.7298446, "lon": -73.9917228}, {"type": "node", "id": 11055557284, "lat": 40.7298547, "lon": -73.9916841}, {"type": "node", "id": 11055557285, "lat": 40.7298465, "lon": -73.9916345}, {"type": "node", "id": 11055557286, "lat": 40.7298412, "lon": -73.9916167}, {"type": "node", "id": 11055557287, "lat": 40.7298302, "lon": -73.9916059}, {"type": "node", "id": 11055557288, "lat": 40.7298135, "lon": -73.9916047}, {"type": "node", "id": 11055557289, "lat": 40.729801, "lon": -73.9916098}, {"type": "node", "id": 11055557290, "lat": 40.7297717, "lon": -73.9916402}, {"type": "node", "id": 11055557291, "lat": 40.7297579, "lon": -73.9916587}, {"type": "node", "id": 11055557292, "lat": 40.7297537, "lon": -73.9916705}, {"type": "node", "id": 11055557293, "lat": 40.7300034, "lon": -73.9927852}, {"type": "node", "id": 11055557294, "lat": 40.7299806, "lon": -73.9928383}, {"type": "node", "id": 11055557295, "lat": 40.7299955, "lon": -73.9928249}, {"type": "node", "id": 11055557296, "lat": 40.7300019, "lon": -73.9928068}, {"type": "node", "id": 11055557297, "lat": 40.7312787, "lon": -73.9941542}, {"type": "node", "id": 11055557298, "lat": 40.7312708, "lon": -73.9941405}, {"type": "node", "id": 11055557299, "lat": 40.7312607, "lon": -73.9941344}, {"type": "node", "id": 11055557300, "lat": 40.7312475, "lon": -73.9941328}, {"type": "node", "id": 11055557301, "lat": 40.7316866, "lon": -73.9951158}, {"type": "node", "id": 11055557302, "lat": 40.7312995, "lon": -73.9953986}, {"type": "node", "id": 11055557303, "lat": 40.7317845, "lon": -73.9966106}, {"type": "node", "id": 11055557304, "lat": 40.7317926, "lon": -73.9965895}, {"type": "node", "id": 11055557305, "lat": 40.7317906, "lon": -73.996604}, {"type": "node", "id": 11055557306, "lat": 40.7313443, "lon": -73.9969375}, {"type": "node", "id": 11055557307, "lat": 40.732198, "lon": -73.997421}, {"type": "node", "id": 11055557308, "lat": 40.7317424, "lon": -73.9977524}, {"type": "node", "id": 11077605269, "lat": 40.7260032, "lon": -74.0011522, "tags": {"addr:city": "New York", "addr:housenumber": "157", "addr:postcode": "10012", "addr:state": "NY", "addr:street": "Prince Street", "name": "Bapple", "office": "estate_agent"}}, {"type": "node", "id": 11435997261, "lat": 40.7314233, "lon": -73.9970991, "tags": {"barrier": "kerb", "kerb": "lowered", "tactile_paving": "yes", "wheelchair": "yes"}}, {"type": "node", "id": 11441007599, "lat": 40.7248407, "lon": -73.9970753, "tags": {"addr:housenumber": "588", "addr:postcode": "10012", "addr:street": "Broadway", "amenity": "cafe", "cuisine": "coffee_shop;pastry;italian", "drink:coffee": "yes", "drink:espresso": "yes", "drink:tea": "yes", "name": "Mangia", "opening_hours": "Mo-Fr 08:00-18:00; Sa 10:00-18:00", "outdoor_seating": "sidewalk", "phone": "+1-212-644-0422"}}, {"type": "node", "id": 11610991069, "lat": 40.7242387, "lon": -73.9961964, "tags": {"addr:city": "New York", "addr:housenumber": "284", "addr:postcode": "10012", "addr:state": "NY", "addr:street": "Lafayette Street", "amenity": "cafe", "branch": "SoHo", "name": "La Cabra", "opening_hours": "Mo-Fr 07:00-18:00; Sa-Su 08:00-18:00", "website": "https://www.lacabra.dk/pages/soho"}}, {"type": "node", "id": 11654745957, "lat": 40.7245453, "lon": -73.9943619, "tags": {"addr:housenumber": "55", "amenity": "cafe", "name": "Pop\u2019s Bagels", "opening_hours": "Mo-Su 06:00-16:00", "phone": "+1 646-370-1520", "takeaway": "only"}}, {"type": "node", "id": 11679760934, "lat": 40.7227424, "lon": -73.9971339, "tags": {"addr:housenumber": "240", "addr:street": "Lafayette Street", "amenity": "restaurant", "check_date": "2024-02-29", "cuisine": "burger", "diet:vegan": "yes", "level": "0", "name": "Beatnic", "opening_hours": "Mo-Fr 11:00-21:00; Sa-Su 12:00-21:00", "wheelchair": "yes"}}, {"type": "node", "id": 11725779437, "lat": 40.7256642, "lon": -73.9989626, "tags": {"addr:city": "New York", "addr:housenumber": "131", "addr:postcode": "10012", "addr:state": "NY", "addr:street": "Greene Street", "amenity": "cafe", "cuisine": "coffee_shop", "name": "Panther Coffee", "outdoor_seating": "no", "website": "https://panthercoffee.com/"}}, {"type": "node", "id": 11875083121, "lat": 40.7265973, "lon": -73.9953567, "tags": {"addr:housenumber": "648", "addr:street": "Broadway", "amenity": "bar", "internet_access": "wlan", "internet_access:fee": "no", "name": "Bleecker Street Bar", "sport": "billiards"}}, {"type": "node", "id": 11943260737, "lat": 40.724217, "lon": -73.9954001, "tags": {"addr:housenumber": "275", "addr:postcode": "10012", "addr:street": "Mulberry Street", "amenity": "restaurant", "cocktails": "yes", "cuisine": "italian", "drink:beer": "yes", "drink:liquor": "yes", "drink:wine": "yes", "name": "Torrisi", "opening_hours": "Mo 17:00-23:30; Tu-Sa 11:30-14:00,17:00-23:30", "website": "https://www.torrisinyc.com", "wheelchair": "yes"}}, {"type": "node", "id": 11943260739, "lat": 40.7246846, "lon": -73.994744, "tags": {"amenity": "bar", "drink:beer": "draught", "drink:liquor": "yes", "drink:wine": "yes", "happy_hours": "Mo-Fr 17:00-19:00, Sa 16:00-19:00, Su 17:00-19:00", "name": "Botantica Bar", "opening_hours": "Mo-We 17:00-01:00, Th-Fr 17:00-02:00, Sa 16:00-02:00, Su 17:00-01:00", "outdoor_seating": "street", "phone": "+1-212-343-7251", "website": "https://botanicabarnyc.com"}}, {"type": "node", "id": 12055614728, "lat": 40.7262725, "lon": -73.9946961, "tags": {"addr:city": "New York", "addr:housenumber": "340", "addr:postcode": "10012", "addr:street": "Lafayette Street", "amenity": "restaurant", "cuisine": "tacos", "name": "Los Tacos No.1", "opening_hours": "11:00-22:00", "website": "https://lostacos1.com"}}, {"type": "node", "id": 12055618255, "lat": 40.725889, "lon": -73.9954623, "tags": {"addr:city": "New York", "addr:housenumber": "166", "addr:postcode": "10012", "addr:street": "Crosby Street", "amenity": "cafe", "name": "Cafe Lyria", "opening_hours": "08:00-17:00"}}, {"type": "node", "id": 12288150210, "lat": 40.721856, "lon": -73.9974488}, {"type": "node", "id": 12288150211, "lat": 40.7216203, "lon": -73.9975449}, {"type": "node", "id": 12288150212, "lat": 40.7217387, "lon": -73.9975441}, {"type": "node", "id": 12365547753, "lat": 40.7218228, "lon": -73.9957101, "tags": {"addr:city": "New York", "addr:housenumber": "35", "addr:street": "Spring Street", "amenity": "cafe", "brand": "Boba Guys", "brand:wikidata": "Q125537779", "check_date": "2024-11-22", "cuisine": "bubble_tea", "name": "Boba Guys", "takeaway": "yes"}}, {"type": "node", "id": 12365555328, "lat": 40.7220431, "lon": -73.9967564, "tags": {"addr:city": "New York", "addr:housenumber": "56", "addr:street": "Spring Street", "amenity": "cafe", "check_date": "2024-11-22", "cuisine": "coffee_shop;breakfast;sandwich;juice", "name": "Spring Lemon Tree"}}, {"type": "node", "id": 12365588901, "lat": 40.7221898, "lon": -73.9965894, "tags": {"addr:housenumber": "53", "addr:street": "Spring Street", "amenity": "bar", "check_date": "2024-11-22", "name": "Beyond The Pale"}}, {"type": "node", "id": 12365598708, "lat": 40.7224732, "lon": -73.9972411, "tags": {"addr:housenumber": "63", "addr:street": "Spring Street", "amenity": "cafe", "check_date": "2024-11-22", "cuisine": "coffee_shop", "name": "The Green Room by Blank Street Coffee"}}, {"type": "node", "id": 12486715049, "lat": 40.7216263, "lon": -73.9959276}, {"type": "node", "id": 12486715050, "lat": 40.7214391, "lon": -73.9960012}, {"type": "node", "id": 12486733601, "lat": 40.721553, "lon": -73.9962952}, {"type": "node", "id": 12488365381, "lat": 40.7239709, "lon": -73.9946087, "tags": {"alt_name": "Axel Springer Haus", "name": "Axel Springer", "office": "company", "official_name": "Axel Springer SE"}}, {"type": "node", "id": 12496714267, "lat": 40.7223209, "lon": -73.9950357}, {"type": "node", "id": 12496714268, "lat": 40.7223065, "lon": -73.9949684}, {"type": "node", "id": 12496714269, "lat": 40.7222958, "lon": -73.9949189}, {"type": "node", "id": 12496714273, "lat": 40.722401, "lon": -73.9947065}, {"type": "node", "id": 12496752009, "lat": 40.7223663, "lon": -73.9950617, "tags": {"amenity": "cafe", "drink:coffee": "yes", "drink:espresso": "yes", "name": "The Elk", "opening_hours": "Mo-Su 08:00-18:00", "phone": "+1-929-618-2557", "website": "https://www.theelknyc.com"}}, {"type": "node", "id": 12496752010, "lat": 40.7226448, "lon": -73.9949556, "tags": {"addr:housenumber": "238", "addr:postcode": "10012", "addr:street": "Mott Street", "amenity": "restaurant", "cuisine": "mediterranean", "drink:wine": "yes", "name": "Boni & Mott", "website": "https://boniandmott.com"}}, {"type": "node", "id": 12926687501, "lat": 40.7257276, "lon": -73.9949997, "tags": {"amenity": "bar", "name": "Temple Bar"}}, {"type": "node", "id": 13307159546, "lat": 40.7223894, "lon": -73.9946525}, {"type": "node", "id": 13307159552, "lat": 40.7221119, "lon": -73.9944803}, {"type": "node", "id": 13307159554, "lat": 40.7222969, "lon": -73.9949239}, {"type": "node", "id": 13307159557, "lat": 40.7220729, "lon": -73.9944957}, {"type": "node", "id": 13307159558, "lat": 40.7220906, "lon": -73.9950258}, {"type": "node", "id": 13307159559, "lat": 40.7222641, "lon": -73.9951172}, {"type": "node", "id": 13307159563, "lat": 40.7222183, "lon": -73.9951358}, {"type": "node", "id": 13322193023, "lat": 40.723877, "lon": -73.9946519, "tags": {"amenity": "restaurant", "cuisine": "sushi;thai", "delivery": "yes", "drink:beer": "yes", "name": "Sakura", "opening_hours": "Mo-Sa 10:45-22:30, Su 15:00-22:00", "outdoor_seating": "sidewalk", "phone": "+1-212-941-9888", "takeaway": "yes", "website": "https://www.sakurasushithai.com/"}}, {"type": "way", "id": 36865288, "nodes": [5159433790, 2547243630, 12486733601, 2547243617, 2547243601, 2547243582, 12486715050, 12486715049, 2547243690, 5159433791, 5159433790], "tags": {"leisure": "park", "name": "Desalvio Playground", "operator": "New York City Department of Parks and Recreation", "ref:nycparks": "M218", "website": "https://www.nycgovparks.org/parks/desalvio-playground", "wikidata": "Q5244081", "wikipedia": "en:DeSalvio Playground"}}, {"type": "way", "id": 44225581, "nodes": [561949916, 2146135063, 2154628325, 2154628324, 2146135062, 561949919, 2154628288, 12288150211, 2154628290, 561949922, 2154628305, 12288150212, 2154628308, 2154628313, 2154628317, 12288150210, 561949916], "tags": {"addr:city": "New York", "addr:state": "NY", "ele": "10", "gnis:feature_id": "2095891", "leisure": "park", "name": "Petrosino Square", "old_name": "Kenmare Square", "opening_hours": "Mo-Su 06:00-01:00", "operator": "New York City Department of Parks and Recreation", "operator:short": "NYC Parks", "operator:type": "government", "operator:wikidata": "Q1894232", "source": "Yahoo", "website": "https://www.nycgovparks.org/parks/petrosino-square/", "wikidata": "Q16983511"}}, {"type": "way", "id": 108156090, "nodes": [1241288747, 11055557247, 11055557246, 1241288720, 11055557248, 11055557249, 11055557250, 11055557255, 11055557256, 11055557257, 11055557251, 11055557258, 11055557259, 1241288742, 1241288740, 1241288737, 1241288744, 1241288724, 1241288717, 1241288722, 1241288753, 1241288735, 1241288730, 1241288732, 1241288733, 11055557266, 11055557267, 11055557268, 11055557264, 11055557269, 11055557270, 11055557271, 11055557273, 11055557275, 11055557274, 11055557276, 11055557272, 11055557278, 11055557279, 11055557280, 11055557281, 11055557282, 11055557292, 11055557291, 11055557290, 11055557289, 11055557288, 11055557287, 11055557286, 11055557285, 11055557284, 11055557283, 11055557293, 11055557296, 11055557295, 11055557294, 1241288754, 1241288726, 1241288746, 11055557300, 11055557299, 11055557298, 11055557297, 11055557301, 11055557302, 8309478837, 11055557304, 11055557305, 11055557303, 11055557306, 11435997261, 11055557308, 11055557307, 1241288727, 2077984659, 1241288747], "tags": {"addr:city": "New York", "addr:state": "NY", "amenity": "university", "education": "university", "internet_access": "wlan", "internet_access:fee": "no", "name": "New York University", "name:es": "Universidad de Nueva York", "name:fr": "Universit\u00e9 de New York", "name:ko": "\ub274\uc695 \ub300\ud559\uad50", "name:ru": "\u041d\u044c\u044e-\u0419\u043e\u0440\u043a\u0441\u043a\u0438\u0439 \u0443\u043d\u0438\u0432\u0435\u0440\u0441\u0438\u0442\u0435\u0442", "name:zh": "\u7ebd\u7ea6\u5927\u5b66", "operator": "New York University", "operator:type": "private", "short_name": "NYU", "source": "bing", "toilets:wheelchair": "yes", "website": "https://www.nyu.edu/", "wheelchair": "yes", "wikidata": "Q49210", "wikipedia": "en:New York University"}}, {"type": "way", "id": 248771057, "nodes": [2555120992, 2555120982, 2555121001, 2555121005, 2555121010, 2555121020, 2555121017, 2555120992], "tags": {"addr:city": "New York", "addr:housenumber": "45", "addr:postcode": "10013", "addr:street": "Mercer Street", "amenity": "restaurant", "bar": "yes", "building": "yes", "cuisine": "pizza;burger;pancake", "height": "18.2", "name": "Odd Sister", "nycdoitt:bin": "1079899", "opening_hours": "11:00-24:00", "phone": "+1 212-966-9288", "website": "https://oddsisternyc.com"}}, {"type": "way", "id": 453461400, "nodes": [2547244077, 4501924444, 13307159559, 13307159563, 2547243889, 2547243887, 2547243880, 13307159558, 2547243866, 2547243829, 2547243815, 13307159557, 4501924442, 13307159552, 2547244084, 2547244138, 2547244131, 13307159546, 12496714273, 2547243673, 2547244038, 12496714269, 13307159554, 2547244055, 12496714268, 12496714267, 2547244073, 2547244077], "tags": {"leisure": "park", "name": "Elizabeth Street Garden", "website": "https://elizabethstreetgarden.org/", "wikidata": "Q28401894", "wikipedia": "en:Elizabeth Street Garden"}}, {"type": "way", "id": 1149319923, "nodes": [2180708702, 10692222096, 2547041173, 6634227885, 2180708702], "tags": {"addr:housenumber": "327", "addr:postcode": "10012", "addr:street": "Lafayette Street", "amenity": "cafe", "branch": "NoHo", "drink:matcha": "yes", "level": "0", "name": "Cha Cha Matcha", "opening_hours": "Mo-Fr 08:00-19:30; Sa, Su 09:00-19:30", "phone": "+1-646-895-9484", "website": "https://chachamatcha.com/pages/locations?location=new-york-city"}}, {"type": "way", "id": 1149319925, "nodes": [10692222098, 1692433915, 5067720936, 10692222097, 10692222098], "tags": {"addr:housenumber": "325", "addr:postcode": "10012", "addr:street": "Lafayette Street", "amenity": "cafe", "drink:coffee": "yes", "drink:espresso": "yes", "level": "0", "name": "Gasoline Alley Coffee", "opening_hours": "Mo-Fr 07:00-19:00; Sa-Su 08:00-19:00", "website": "https://www.gasolinealleycoffee.com"}}]}