{"version": 0.6, "generator": "Overpass API 0.7.62.8 e802775f", "osm3s": {"timestamp_osm_base": "2025-12-01T03:52:00Z", "copyright": "The data included in this document is from www.openstreetmap.org. The data is made available under ODbL."}, "elements": [{"type": "node", "id": 530697968, "lat": 40.7594616, "lon": -73.9830426}, {"type": "node", "id": 530697969, "lat": 40.7599304, "lon": -73.9826972}, {"type": "node", "id": 763650163, "lat": 40.7582151, "lon": -73.9866267, "tags": {"addr:housenumber": "1515", "addr:postcode": "10019", "addr:street": "Broadway", "amenity": "restaurant", "branch": "45th Street", "cocktails": "yes", "name": "Junior's", "opening_hours": "Mo-Th, Su 06:30-00:00; Fr, Sa 06:30-01:00", "outdoor_seating": "yes", "phone": "+1 212-302-2000", "website": "https://www.juniorscheesecake.com/blog/restaurants/times-square/"}}, {"type": "node", "id": 1487472478, "lat": 40.7607113, "lon": -73.9807687, "tags": {"addr:city": "New York", "addr:country": "US", "addr:housenumber": "120", "addr:postcode": "10020", "addr:state": "NY", "addr:street": "West 51st Street", "amenity": "restaurant", "name": "Capital Grille at Time-Life", "website": "https://www.thecapitalgrille.com/", "wheelchair": "yes"}}, {"type": "node", "id": 1574243027, "lat": 40.7577419, "lon": -73.9823365, "tags": {"addr:city": "New York", "addr:state": "NY", "addr:street": "6th Avenue", "consulate": "consulate_general", "country": "BR", "diplomatic": "consulate", "level": "21", "name": "Consulate General of Brazil", "name:en": "Consulate General of Brazil", "name:pt": "Consulado Geral do Brasil", "office": "diplomatic", "official_name": "Consulado-Geral do Brasil em Nova York", "target": "US", "website": "http://novayork.itamaraty.gov.br/"}}, {"type": "node", "id": 1593328953, "lat": 40.7602407, "lon": -73.9822244}, {"type": "node", "id": 1593328960, "lat": 40.7604677, "lon": -73.9820585}, {"type": "node", "id": 1753098052, "lat": 40.7572678, "lon": -73.9836738, "tags": {"entrance": "main"}}, {"type": "node", "id": 1753098061, "lat": 40.7573011, "lon": -73.9837558, "tags": {"entrance": "main"}}, {"type": "node", "id": 1753134755, "lat": 40.7579634, "lon": -73.9838394, "tags": {"entrance": "main"}}, {"type": "node", "id": 1758217485, "lat": 40.7604723, "lon": -73.9840506, "tags": {"addr:city": "New York", "addr:country": "US", "addr:housenumber": "202", "addr:postcode": "10019", "addr:state": "NY", "addr:street": "West 49th Street", "amenity": "restaurant", "email": "playact1@aol.com", "fax": "+1-212-664-0563", "name": "The Playwright", "phone": "+1 212-262-9263", "smoking": "no", "website": "https://www.playwrighttavern.com/"}}, {"type": "node", "id": 1762432574, "lat": 40.7586827, "lon": -73.9835886, "tags": {"entrance": "main"}}, {"type": "node", "id": 1899033650, "lat": 40.7616486, "lon": -73.9868145, "tags": {"amenity": "pub", "name": "West End Bar & Grill"}}, {"type": "node", "id": 2134025590, "lat": 40.7593243, "lon": -73.9816604, "tags": {"addr:housenumber": "1221", "addr:postcode": "10020", "addr:street": "6th Avenue", "amenity": "restaurant", "brand": "Del Frisco's Double Eagle Steakhouse", "brand:wikidata": "Q23461481", "cuisine": "steak_house", "delivery": "yes", "drink:wine": "yes", "email": "dfny@ldry.com", "name": "Del Frisco's Double Eagle Steakhouse", "opening_hours": "Mo-Th 11:00-22:00; Fr 11:00-23:00; Sa 16:00-23:00; Su 16:00-22:00", "operator": "Landry's", "payment:american_express": "yes", "payment:cash": "yes", "payment:diners_club": "yes", "payment:discover_card": "yes", "payment:mastercard": "yes", "payment:visa": "yes", "phone": "+1 212-575-5129", "reservation": "yes", "takeaway": "yes", "website": "https://delfriscos.com/steakhouse/new-york/"}}, {"type": "node", "id": 2610440246, "lat": 40.7604501, "lon": -73.9839884, "tags": {"addr:city": "New York", "addr:housenumber": "740", "addr:state": "NY", "addr:street": "7th Avenue", "amenity": "restaurant", "name": "Burger Man"}}, {"type": "node", "id": 2610440247, "lat": 40.7625486, "lon": -73.9824969, "tags": {"addr:city": "New York", "addr:country": "US", "addr:housenumber": "800", "addr:postcode": "10019", "addr:state": "NY", "addr:street": "7th Avenue", "amenity": "pub", "name": "Rosie O'Grady's Saloon", "website": "https://www.rosieogradys.com/", "wheelchair": "yes"}}, {"type": "node", "id": 2610440250, "lat": 40.7608044, "lon": -73.9837222, "tags": {"addr:city": "New York", "addr:housenumber": "750", "addr:postcode": "10019", "addr:state": "NY", "addr:street": "7th Avenue", "amenity": "cafe", "branch": "49th & Seventh", "brand": "Starbucks", "brand:wikidata": "Q37158", "cuisine": "coffee_shop", "name": "Starbucks", "official_name": "Starbucks Coffee", "phone": "+1 212-974-0032", "takeaway": "yes", "website": "https://www.starbucks.com/store-locator/store/11631/49th-seventh-750-seventh-avenue-new-york-ny-100196834-us"}}, {"type": "node", "id": 2625469223, "lat": 40.7612883, "lon": -73.9871051, "tags": {"addr:housenumber": "795", "addr:street": "8th Avenue", "amenity": "bar", "name": "Q NYC"}}, {"type": "node", "id": 2676979135, "lat": 40.7592344, "lon": -73.9863162, "tags": {"addr:housenumber": "221", "addr:postcode": "10036", "addr:street": "West 46th Street", "alt_name": "Stand-Up NY", "amenity": "restaurant", "cuisine": "italian", "name": "Bond 45", "website": "https://www.bond45ny.com"}}, {"type": "node", "id": 2678466842, "lat": 40.7572318, "lon": -73.9863898, "tags": {"addr:city": "New York", "addr:housenumber": "1501", "addr:postcode": "10036", "addr:state": "NY", "addr:street": "Broadway", "air_conditioning": "yes", "amenity": "restaurant", "bar": "yes", "branch": "New York, NY", "brand": "Bubba Gump Shrimp Company", "brand:wikidata": "Q50024", "cuisine": "seafood", "diet:gluten_free": "yes", "diet:vegetarian": "yes", "level": "0", "name": "Bubba Gump Shrimp Company", "opening_hours": "Mo-Th 11:00-23:00; Fr-Sa 10:30-00:00; Su 10:30-23:00", "outdoor_seating": "no", "phone": "+1-212-391-7100", "reservation": "yes", "smoking": "no", "takeaway": "yes", "toilets": "yes", "website": "https://www.bubbagump.com/locations/new-york-city/"}}, {"type": "node", "id": 2678581856, "lat": 40.7601307, "lon": -73.9871355, "tags": {"addr:city": "New York", "addr:housenumber": "266", "addr:street": "West 47th Street", "amenity": "pub", "check_date": "2025-10-29", "name": "The Mean Fiddler", "website": "https://www.themeanfiddlernyc.com/"}}, {"type": "node", "id": 2678783476, "lat": 40.7614452, "lon": -73.9837559, "tags": {"addr:city": "New York", "addr:country": "US", "addr:housenumber": "205", "addr:postcode": "10019", "addr:state": "NY", "addr:street": "West 50th Street", "amenity": "restaurant", "brand": "Applebee's Neighborhood Grill & Bar", "brand:wikidata": "Q621532", "check_date": "2024-03-07", "cuisine": "american", "name": "Applebee's", "official_name": "Applebee's Neighborhood Grill & Bar", "opening_hours": "Su-Th 07:00-24:00; Fr-Sa 07:00-01:00", "phone": "+1 212-262-2400", "website": "https://restaurants.applebees.com/en-us/ny/new-york/205-w-50th-street-98001", "website:menu": "https://www.applebees.com/en/menu?StoreNumber=98001&action=viewmenu"}}, {"type": "node", "id": 2678783479, "lat": 40.7618484, "lon": -73.9835031, "tags": {"addr:city": "New York", "addr:country": "US", "addr:housenumber": "1650", "addr:postcode": "10019", "addr:state": "NY", "addr:street": "Broadway", "amenity": "restaurant", "cuisine": "american", "name": "Ellen's Stardust Diner", "name_alt": "Ellen's Stardust Dinner", "website": "https://www.ellensstardustdiner.com/", "wikidata": "Q5364708", "wikipedia": "en:Ellen's Stardust Diner"}}, {"type": "node", "id": 2678783481, "lat": 40.7620837, "lon": -73.9833543, "tags": {"addr:city": "New York", "addr:housenumber": "156", "addr:postcode": "10019", "addr:state": "NY", "addr:street": "West 52nd Street", "amenity": "cafe", "branch": "Pickup - 52nd & 7th", "brand": "Starbucks", "brand:wikidata": "Q37158", "check_date": "2014-10-06", "cuisine": "coffee_shop", "name": "Starbucks", "official_name": "Starbucks Coffee", "phone": "+1 212-245-6479", "ref": "11393", "takeaway": "yes", "website": "https://www.starbucks.com/store-locator/store/11393/pickup-52nd-7th-156-w-52nd-st-new-york-ny-100196004-us"}}, {"type": "node", "id": 2689589690, "lat": 40.7592453, "lon": -73.9853339, "tags": {"addr:city": "New York", "addr:housenumber": "1567", "addr:postcode": "10036", "addr:street": "Broadway", "amenity": "restaurant", "cuisine": "seafood", "name": "Blue Fin", "website": "https://www.bluefinnyc.com/"}}, {"type": "node", "id": 2689589693, "lat": 40.7583345, "lon": -73.9841851, "tags": {"addr:city": "New York", "addr:housenumber": "151", "addr:street": "West 46th Street", "amenity": "restaurant", "branch": "Times Square", "name": "Havana Central", "website": "https://havanacentral.com/"}}, {"type": "node", "id": 2710031782, "lat": 40.7620192, "lon": -73.987651, "tags": {"addr:housenumber": "316", "addr:postcode": "10019", "addr:street": "West 49th Street", "amenity": "restaurant", "cuisine": "brazilian;steak_house", "delivery": "yes", "email": "info@plataformaonline.com", "facebook": "churrascariaplataformany", "fax": "+1 212-974-8250", "instagram": "churrascariaplataforma", "name": "Churrascaria Plataforma", "opening_hours": "Mo-We 13:00-21:00; Th, Fr 13:00-22:00; Sa 12:00-23:00; Su 12:00-21:00", "phone": "+1 212-245-0505", "reservation": "yes", "takeaway": "yes", "website": "https://plataformaonline.com"}}, {"type": "node", "id": 2710031799, "lat": 40.7615479, "lon": -73.9868708, "tags": {"addr:housenumber": "807", "addr:postcode": "10019", "addr:street": "8th Avenue", "amenity": "restaurant", "cocktails": "yes", "cuisine": "diner", "delivery": "yes", "drink:beer": "yes", "drink:wine": "yes", "name": "Times Square Diner & Grill", "opening_hours": "Mo-Su 07:00-23:00", "phone": "+1 212-315-2400", "takeaway": "yes", "website": "https://ordertimessquarediner.com/"}}, {"type": "node", "id": 2717293824, "lat": 40.7575108, "lon": -73.9867126, "tags": {"addr:city": "New York", "addr:housenumber": "200", "addr:postcode": "10036", "addr:state": "NY", "addr:street": "West 44th Street", "air_conditioning": "yes", "amenity": "restaurant", "bar": "yes", "branch": "Times Square", "cocktails": "yes", "cuisine": "italian", "drink:beer": "draught", "drink:liquor": "yes", "drink:wine": "yes", "name": "Carmine's", "phone": "+1-212-221-3800", "reservation": "recommended", "takeaway": "yes", "toilets": "yes", "website": "https://www.carminesnyc.com/locations/times-square"}}, {"type": "node", "id": 2717293852, "lat": 40.7597407, "lon": -73.9861863, "tags": {"addr:city": "New York", "addr:housenumber": "228", "addr:postcode": "10036", "addr:street": "West 47th Street", "amenity": "bar", "check_date": "2025-10-28", "name": "Rum House"}}, {"type": "node", "id": 2717293878, "lat": 40.7605323, "lon": -73.9870469, "tags": {"addr:city": "New York", "addr:housenumber": "776", "addr:postcode": "10036", "addr:state": "NY", "addr:street": "8th Avenue", "amenity": "restaurant", "bar": "yes", "cuisine": "korean;american", "email": "info@guinyc.com", "name": "Gui Steakhouse", "phone": "+16463295929", "website": "https://guinyc.com/"}}, {"type": "node", "id": 2717293895, "lat": 40.7575976, "lon": -73.9875943}, {"type": "node", "id": 2717293899, "lat": 40.757685, "lon": -73.9878023}, {"type": "node", "id": 2717293906, "lat": 40.7578241, "lon": -73.9874297}, {"type": "node", "id": 2717293907, "lat": 40.7578386, "lon": -73.9874192}, {"type": "node", "id": 2717293910, "lat": 40.7579145, "lon": -73.9876356}, {"type": "node", "id": 2717293911, "lat": 40.757926, "lon": -73.9876272}, {"type": "node", "id": 2717323719, "lat": 40.7602955, "lon": -73.9845027, "tags": {"addr:housenumber": "1600", "addr:postcode": "10019", "addr:street": "Broadway", "amenity": "cafe", "brand": "Gong Cha", "brand:wikidata": "Q5581670", "brand:zh": "\u8ca2\u8336", "cuisine": "bubble_tea", "int_name": "Gong Cha", "name": "Gong Cha", "name:zh": "\u8ca2\u8336", "opening_hours": "Su-We 11:00-22:30; Th-Sa 11:00-23:00", "takeaway": "yes"}}, {"type": "node", "id": 2717323748, "lat": 40.7615479, "lon": -73.9837434, "tags": {"addr:city": "New York", "addr:housenumber": "1634", "addr:postcode": "10019", "addr:street": "Broadway", "amenity": "restaurant", "cuisine": "chinese", "name": "Nanking", "website": "https://www.nankingrestaurantgroup.com/"}}, {"type": "node", "id": 2717323791, "lat": 40.7608991, "lon": -73.986314, "tags": {"addr:housenumber": "235", "addr:postcode": "10036", "addr:street": "West 48th Street", "amenity": "restaurant", "contact:email": "info@lamasserianyc.com", "contact:fax": "+1 212-582-2420", "contact:instagram": "lamasserianyc", "contact:phone": "+1-212-582-2111", "contact:website": "https://lamasserianyc.com/", "cuisine": "italian", "delivery": "yes", "drink:wine": "served", "name": "La Masseria", "opening_hours": "Mo 12:00-15:00, 16:30-23:00; Tu-Sa 12:00-15:00, 16:30-24:00; Su 12:00-22:30", "reservation": "yes", "takeaway": "yes"}}, {"type": "node", "id": 2717542733, "lat": 40.7578147, "lon": -73.982208, "tags": {"addr:city": "New York", "addr:housenumber": "1185", "addr:postcode": "10036", "addr:state": "NY", "addr:street": "6th Avenue", "description": "Experienced NY Securities Litigation Attorneys", "level": "37", "name": "Herskovits PLLC", "office": "lawyer"}}, {"type": "node", "id": 2717545066, "lat": 40.7572363, "lon": -73.9835963}, {"type": "node", "id": 2717545159, "lat": 40.7572858, "lon": -73.983718}, {"type": "node", "id": 2717545182, "lat": 40.7573043, "lon": -73.9835481}, {"type": "node", "id": 2717545186, "lat": 40.7573107, "lon": -73.9837795}, {"type": "node", "id": 2717545189, "lat": 40.7573159, "lon": -73.9837758}, {"type": "node", "id": 2717545193, "lat": 40.7573236, "lon": -73.9835345}, {"type": "node", "id": 2717545203, "lat": 40.7573445, "lon": -73.9835197}, {"type": "node", "id": 2717545216, "lat": 40.7573633, "lon": -73.9835065}, {"type": "node", "id": 2717545262, "lat": 40.757431, "lon": -73.9834585}, {"type": "node", "id": 2717545281, "lat": 40.7574804, "lon": -73.9835802}, {"type": "node", "id": 2717545295, "lat": 40.7575054, "lon": -73.9836417}, {"type": "node", "id": 2717545409, "lat": 40.7577147, "lon": -73.9839856}, {"type": "node", "id": 2717545413, "lat": 40.7577348, "lon": -73.9840348}, {"type": "node", "id": 2717545585, "lat": 40.7579537, "lon": -73.9838168}, {"type": "node", "id": 2717545599, "lat": 40.7579738, "lon": -73.983866}, {"type": "node", "id": 2717545825, "lat": 40.7584293, "lon": -73.9837328}, {"type": "node", "id": 2717545835, "lat": 40.758454, "lon": -73.9837918}, {"type": "node", "id": 2717545846, "lat": 40.7584564, "lon": -73.9837974}, {"type": "node", "id": 2717545853, "lat": 40.7584833, "lon": -73.9837777}, {"type": "node", "id": 2717545914, "lat": 40.7586696, "lon": -73.9835575}, {"type": "node", "id": 2717545923, "lat": 40.7586831, "lon": -73.9836319}, {"type": "node", "id": 2717545934, "lat": 40.7586966, "lon": -73.983622}, {"type": "node", "id": 2717546150, "lat": 40.7594997, "lon": -73.9831421}, {"type": "node", "id": 2717546205, "lat": 40.7597028, "lon": -73.9829935}, {"type": "node", "id": 2717546209, "lat": 40.7597089, "lon": -73.983004}, {"type": "node", "id": 2717546319, "lat": 40.7599823, "lon": -73.9828041}, {"type": "node", "id": 2717546353, "lat": 40.7600926, "lon": -73.9825761}, {"type": "node", "id": 2717546365, "lat": 40.7601674, "lon": -73.9827477}, {"type": "node", "id": 2717546378, "lat": 40.760203, "lon": -73.9827113}, {"type": "node", "id": 2717546381, "lat": 40.7602064, "lon": -73.9827194}, {"type": "node", "id": 2717546387, "lat": 40.7603189, "lon": -73.9824107}, {"type": "node", "id": 2717546406, "lat": 40.7603852, "lon": -73.9825551}, {"type": "node", "id": 2717546409, "lat": 40.7603929, "lon": -73.9825734}, {"type": "node", "id": 2717546457, "lat": 40.7605821, "lon": -73.9824121}, {"type": "node", "id": 2717546460, "lat": 40.7605937, "lon": -73.9824399}, {"type": "node", "id": 2717546466, "lat": 40.7606339, "lon": -73.9824107}, {"type": "node", "id": 2717578856, "lat": 40.7574915, "lon": -73.9808385, "tags": {"addr:housenumber": "50", "addr:postcode": "10036", "addr:street": "West 47th Street", "name": "Gemological Institute of America", "office": "association", "short_name": "GIA"}}, {"type": "node", "id": 2721574108, "lat": 40.7605232, "lon": -73.9861219, "tags": {"addr:city": "New York", "addr:housenumber": "232", "addr:postcode": "10036", "addr:street": "West 48th Street", "amenity": "pub", "cuisine": "american", "name": "Hurley's", "website": "https://www.hurleysnyc.com/"}}, {"type": "node", "id": 2721574113, "lat": 40.7606849, "lon": -73.9865304, "tags": {"addr:city": "New York", "addr:housenumber": "244", "addr:postcode": "10036", "addr:street": "West 48th Street", "amenity": "restaurant", "cuisine": "thai", "name": "Pongsri", "website": "http://www.pongsri.net/", "wheelchair": "no"}}, {"type": "node", "id": 2721574118, "lat": 40.7606569, "lon": -73.9864408, "tags": {"addr:city": "New York", "addr:housenumber": "234", "addr:postcode": "10036", "addr:street": "West 48th Street", "amenity": "restaurant", "cuisine": "vietnamese;japanese", "delivery": "yes", "name": "An'nam", "opening_hours": "Mo-Su 11:30-21:00", "phone": "+1-212-247-6042", "takeaway": "yes", "website": "https://www.annamnyc.com/", "wheelchair": "yes"}}, {"type": "node", "id": 2721574123, "lat": 40.7604406, "lon": -73.987191, "tags": {"addr:city": "New York", "addr:housenumber": "770", "addr:postcode": "10036", "addr:state": "NY", "addr:street": "8th Avenue", "amenity": "cafe", "branch": "47th & 8th", "brand": "Starbucks", "brand:wikidata": "Q37158", "check_date": "2025-04-29", "cuisine": "coffee_shop", "name": "Starbucks", "official_name": "Starbucks Coffee", "phone": "+1 212-830-9001", "takeaway": "yes", "website": "https://www.starbucks.com/store-locator/store/14350/47th-8th-770-eighth-ave-new-york-ny-100367017-us"}}, {"type": "node", "id": 2722857800, "lat": 40.75965, "lon": -73.985965, "tags": {"addr:city": "New York", "addr:housenumber": "228", "addr:postcode": "10036", "addr:street": "West 47th Street", "amenity": "restaurant", "name": "Friedman's"}}, {"type": "node", "id": 2722857817, "lat": 40.7599261, "lon": -73.9866455, "tags": {"addr:city": "New York", "addr:housenumber": "252", "addr:postcode": "10036", "addr:street": "West 47th Street", "amenity": "restaurant", "check_date": "2025-10-28", "name": "Glass House Tavern", "website": "https://glasshousetavern.com/"}}, {"type": "node", "id": 2722857832, "lat": 40.7598975, "lon": -73.9865625, "tags": {"addr:city": "New York", "addr:housenumber": "250", "addr:postcode": "10036", "addr:street": "West 47th Street", "amenity": "restaurant", "cuisine": "indian", "name": "Dilli Dilli"}}, {"type": "node", "id": 2722857837, "lat": 40.7599596, "lon": -73.9867307, "tags": {"addr:city": "New York", "addr:housenumber": "254", "addr:postcode": "10036", "addr:street": "West 47th Street", "amenity": "restaurant", "check_date": "2025-11-04", "cuisine": "italian", "name": "Trattoria Trecolori", "website": "https://www.trattoriatrecolori.com/"}}, {"type": "node", "id": 3067940118, "lat": 40.7623757, "lon": -73.9858109, "tags": {"addr:city": "New York", "addr:housenumber": "832", "addr:postcode": "10019", "addr:street": "8th Avenue", "amenity": "restaurant", "name": "Sosa Borella", "website": "http://www.sosaborella.com/", "wheelchair": "yes"}}, {"type": "node", "id": 3932353663, "lat": 40.7613945, "lon": -73.981691, "tags": {"addr:city": "New York", "addr:country": "US", "addr:housenumber": "155", "addr:postcode": "10019", "addr:state": "NY", "addr:street": "West 51st Street", "amenity": "restaurant", "cuisine": "french;seafood", "name": "Le Bernardin", "opening_hours": "Mo-Th 12:00-14:30, 17:15-22:30; Fr 12:00-14:30, 17:15-23:00; Sa 17:15-23:00", "phone": "+1-212-554-1515", "stars": "3", "website": "https://www.le-bernardin.com/", "wheelchair": "yes", "wikidata": "Q6506539", "wikipedia": "en:Le Bernardin"}}, {"type": "node", "id": 3995212060, "lat": 40.7600927, "lon": -73.9825066, "tags": {"addr:city": "New York", "addr:housenumber": "123", "addr:postcode": "10020", "addr:street": "West 49th Street", "alt_name": "Sushiden 6th Ave", "amenity": "restaurant", "cuisine": "japanese", "name": "Sushiden", "website": "http://sushiden.com/"}}, {"type": "node", "id": 4188132390, "lat": 40.7616147, "lon": -73.9868436, "tags": {"addr:housenumber": "811", "addr:street": "8th Avenue", "amenity": "restaurant", "name": "Kung Fu Little Steamed Buns"}}, {"type": "node", "id": 4243439483, "lat": 40.7583844, "lon": -73.9832932, "tags": {"amenity": "bar", "name": "Haven Rooftop Bar"}}, {"type": "node", "id": 4385240481, "lat": 40.758744, "lon": -73.986415, "tags": {"addr:city": "New York", "addr:housenumber": "1535", "addr:street": "Broadway", "amenity": "restaurant", "check_date": "2025-11-04", "cuisine": "american", "level": "47", "name": "The View Restaurant & Lounge", "phone": "+1 212 704 8900", "website": "https://www.theviewnyc.com/"}}, {"type": "node", "id": 4443479889, "lat": 40.7607731, "lon": -73.9808203, "tags": {"addr:housenumber": "110", "addr:street": "West 51st Street", "amenity": "restaurant", "brand": "Ted's Montana Grill", "brand:wikidata": "Q16953170", "cuisine": "american", "name": "Ted's Montana Grill", "name:en": "Ted's Montana Grill", "opening_hours": "Su-Th 11:00-21:00; Fr,Sa 11:00-22:00"}}, {"type": "node", "id": 4494829289, "lat": 40.7622096, "lon": -73.9874605, "tags": {"addr:city": "New York", "addr:housenumber": "325", "addr:postcode": "10019", "addr:state": "NY", "addr:street": "West 49th Street", "amenity": "cafe", "branch": "49th btwn 8th & 9th", "brand": "Starbucks", "brand:wikidata": "Q37158", "cuisine": "coffee_shop", "name": "Starbucks", "official_name": "Starbucks Coffee", "phone": "+1 212-765-2205", "ref": "16666", "takeaway": "yes", "website": "https://www.starbucks.com/store-locator/store/16666/49th-btwn-8th-9th-325-w-49th-st-new-york-ny-100197316-us"}}, {"type": "node", "id": 4503912490, "lat": 40.7579319, "lon": -73.9821357, "tags": {"addr:housenumber": "1185", "addr:postcode": "10036", "addr:street": "6th Avenue", "amenity": "restaurant", "name": "Carnegie Diner & Cafe"}}, {"type": "node", "id": 4545006872, "lat": 40.7601231, "lon": -73.9826461}, {"type": "node", "id": 4545006873, "lat": 40.7604822, "lon": -73.9820496}, {"type": "node", "id": 4545006874, "lat": 40.7605918, "lon": -73.9823106}, {"type": "node", "id": 4687113395, "lat": 40.7602363, "lon": -73.9873789, "tags": {"amenity": "restaurant", "check_date": "2025-10-28", "name": "Carve: Unique Sandwich", "name:en": "Carve: Unique Sandwich"}}, {"type": "node", "id": 4708892894, "lat": 40.7617708, "lon": -73.9850779, "tags": {"addr:housenumber": "226", "addr:street": "West 50th Street", "amenity": "restaurant", "contact:email": "info@natsuminyc.com", "contact:facebook": "natsuminyc", "contact:instagram": "natsuminyc", "contact:phone": "+1-212-258-2988", "contact:twitter": "natsumi_nyc", "contact:website": "http://natsuminyc.com/", "cuisine": "sushi;japanese", "delivery": "yes", "name": "Natsumi", "opening_hours": "Mo-Th 16:00-18:30; Fr, Sa 15:30-23:00", "reservation": "yes", "seats": "97", "takeaway": "yes", "wheelchair": "limited"}}, {"type": "node", "id": 4755575514, "lat": 40.7584335, "lon": -73.9831005, "tags": {"amenity": "restaurant", "name": "Tender"}}, {"type": "node", "id": 4794092321, "lat": 40.7613487, "lon": -73.9822791, "tags": {"addr:housenumber": "148", "addr:postcode": "10019", "addr:street": "West 51st Street", "amenity": "restaurant", "brand": "Ruth's Chris Steak House", "brand:wikidata": "Q7382829", "cuisine": "american;steak_house", "name": "Ruth's Chris Steak House", "name:de": "Ruth's Chris Steak House", "phone": "+1 212 265 9600", "website": "https://www.ruthschris.com/"}}, {"type": "node", "id": 4909127627, "lat": 40.761217, "lon": -73.987191, "tags": {"amenity": "restaurant", "cuisine": "mexican", "name": "Sombrero"}}, {"type": "node", "id": 5061206121, "lat": 40.7609089, "lon": -73.985336, "tags": {"addr:postcode": "10019", "amenity": "restaurant", "cuisine": "italian", "name": "Da Marino", "name:en": "Da Marino", "opening_hours": "Mo-Th 11:00-01:00; Fr-Sa 11:00-02:00", "phone": "+1-212-541-6601", "website": "http://www.damarino.com", "wheelchair": "no", "wikidata": "Q16974386"}}, {"type": "node", "id": 5172045822, "lat": 40.7575599, "lon": -73.9868366, "tags": {"addr:housenumber": "220", "addr:postcode": "10036", "addr:street": "West 44th Street", "amenity": "restaurant", "name": "Guy\u2019s American Kitchen & Bar", "opening_hours": "Su-We 11:30-22:00; Th-Fr 11:30-22:30; Sa 11:30-23:00"}}, {"type": "node", "id": 5425647820, "lat": 40.7619612, "lon": -73.9843717, "tags": {"addr:city": "New York", "addr:floor": "37-38", "addr:housenumber": "1633", "addr:postcode": "10019", "addr:street": "Broadway", "name": "MongoDB", "office": "it", "phone": "+1 866 237 8815", "website": "https://www.mongodb.com/"}}, {"type": "node", "id": 5528676228, "lat": 40.7579702, "lon": -73.9838946, "tags": {"addr:housenumber": "136", "addr:street": "West 46th Street", "amenity": "cafe", "cuisine": "cuban", "level": "0", "name": "Margon Restaurant"}}, {"type": "node", "id": 5762582555, "lat": 40.7622424, "lon": -73.9832858, "tags": {"addr:housenumber": "1650", "addr:postcode": "10019", "addr:street": "Broadway", "amenity": "pub", "name": "Iridium Jazz Club", "opening_hours": "Mo-Su 18:00-00:00", "phone": "+12125822121", "wikidata": "Q1331383"}}, {"type": "node", "id": 5840679445, "lat": 40.7608042, "lon": -73.9842008, "tags": {"addr:housenumber": "1626", "addr:postcode": "10019", "addr:street": "Broadway", "air_conditioning": "yes", "amenity": "restaurant", "branch": "49th Street", "check_date": "2025-05-03", "cocktails": "yes", "name": "Junior's", "opening_hours": "Mo-Th,Su 07:00-24:00; Fr-Sa 07:00-01:00", "outdoor_seating": "no", "phone": "+1 212-365-5900", "smoking": "no", "takeaway": "yes", "toilets": "yes", "website": "https://www.juniorscheesecake.com/blog/restaurants/49thstreet/", "wheelchair": "limited"}}, {"type": "node", "id": 5922862086, "lat": 40.7611297, "lon": -73.9839743, "tags": {"addr:housenumber": "1626", "addr:street": "Broadway", "amenity": "restaurant", "name": "Junior's Deli"}}, {"type": "node", "id": 5985763486, "lat": 40.758148, "lon": -73.9824848, "tags": {"addr:housenumber": "1185", "addr:postcode": "10036", "addr:street": "6th Avenue", "amenity": "cafe", "brand": "Starbucks", "brand:wikidata": "Q37158", "cuisine": "coffee_shop", "internet_access": "wlan", "name": "Starbucks", "official_name": "Starbucks Coffee", "opening_hours": "Mo-Fr 05:30-21:00; Sa-Su 07:00-21:00", "operator": "Starbucks", "phone": "+1-212-730-7645", "takeaway": "yes", "website": "https://www.starbucks.com/store-locator/store/6945/nhl-store-47th-sixth-1185-avenue-of-the-americas-new-york-ny-100362601-"}}, {"type": "node", "id": 5985838985, "lat": 40.7596521, "lon": -73.9852254, "tags": {"addr:city": "New York", "addr:housenumber": "1585", "addr:postcode": "10036", "addr:state": "NY", "addr:street": "Broadway", "amenity": "cafe", "branch": "47th & Broadway", "brand": "Starbucks", "brand:wikidata": "Q37158", "cuisine": "coffee_shop", "name": "Starbucks", "official_name": "Starbucks Coffee", "opening_hours": "Mo-Th 05:30-00:00; Fr-Sa 05:30-02:00; Su 05:30-01:00", "phone": "+1 212-541-7515", "takeaway": "yes", "website": "https://www.starbucks.com/store-locator/store/1005509/47th-broadway-1585-broadway-new-york-ny-100368200-us"}}, {"type": "node", "id": 6008970685, "lat": 40.7606732, "lon": -73.985793, "tags": {"amenity": "cafe", "name": "Masseria Caffe & Bakery", "opening_hours": "Tu-Fr 07:00-20:00; Sa 08:00-20:00; Su 08:00-16:00; Mo 07:00-19:00", "wheelchair": "yes"}}, {"type": "node", "id": 6030389800, "lat": 40.7572238, "lon": -73.9807255, "tags": {"addr:city": "New York", "addr:housenumber": "44", "addr:postcode": "10036", "addr:state": "NY", "addr:street": "West 47th Street", "amenity": "cafe", "cuisine": "coffee_shop;sandwich;soup", "diet:kosher": "yes", "drink:coffee": "yes", "drink:espresso": "yes", "level": "0", "name": "Robusta Espresso Bar", "opening_hours": "Mo-Fr 09:00-17:00", "phone": "+1-212-302-0242", "website": "https://www.robustaigt.com"}}, {"type": "node", "id": 6053407685, "lat": 40.7599574, "lon": -73.9831315, "tags": {"amenity": "restaurant", "cuisine": "deli", "name": "Toasties", "opening_hours": "Mo-Th 06:00-17:00, Fr-Su 06:00-20:00", "phone": "+1-212-398-4900", "website": "http://toastiesnyc.com"}}, {"type": "node", "id": 6285668319, "lat": 40.7584918, "lon": -73.983254, "tags": {"addr:city": "New York", "addr:housenumber": "132", "addr:postcode": "10036", "addr:state": "NY", "addr:street": "W 47th St", "amenity": "restaurant", "cuisine": "sushi", "name": "Sushi By Bou", "opening_hours": "Mo-Fr 09:00-18:00", "phone": "+1-917-348-5737", "website": "https://www.sushibybou.com"}}, {"type": "node", "id": 6418252593, "lat": 40.7594748, "lon": -73.9847715, "tags": {"amenity": "restaurant", "brand": "Olive Garden", "brand:wikidata": "Q3045312", "cuisine": "italian", "name": "Olive Garden"}}, {"type": "node", "id": 6426977889, "lat": 40.7601612, "lon": -73.9864034, "tags": {"amenity": "restaurant", "brand": "Buffalo Wild Wings", "brand:wikidata": "Q509255", "cuisine": "wings", "internet_access": "wlan", "name": "Buffalo Wild Wings", "opening_hours": "Mo-Su 11:00-00:00", "phone": "+1-212-265-9453", "short_name": "BW3"}}, {"type": "node", "id": 6475002986, "lat": 40.7612776, "lon": -73.9828873, "tags": {"addr:housenumber": "761", "addr:street": "7th Avenue", "amenity": "restaurant", "cuisine": "steak_house", "name": "Tad\u2019s Steakhouse"}}, {"type": "node", "id": 6615272821, "lat": 40.7578879, "lon": -73.9831141, "tags": {"amenity": "cafe", "check_date": "2025-06-15", "cuisine": "coffee", "level": "0", "name": "For five coffee roasters", "opening_hours": "Mo-Fr 07:00-19:00; Sa-Su 08:00-16:00", "outdoor_seating": "no", "takeaway": "yes", "wheelchair": "yes"}}, {"type": "node", "id": 6898129085, "lat": 40.7615503, "lon": -73.9859763, "tags": {"addr:postcode": "10019", "amenity": "bar", "name": "Lillie\u2018s", "phone": "+1-212-957-4530", "website": "https://www.lilliesnyc.com/", "wheelchair": "yes"}}, {"type": "node", "id": 7093921929, "lat": 40.7582536, "lon": -73.9807387, "tags": {"addr:city": "New York", "addr:housenumber": "64", "addr:postcode": "10036", "addr:state": "NY", "addr:street": "West 48th Street", "addr:unit": "1", "amenity": "restaurant", "cuisine": "noodle", "name": "TsuroTonTan"}}, {"type": "node", "id": 7093921932, "lat": 40.7581457, "lon": -73.9806079, "tags": {"addr:city": "New York", "addr:housenumber": "60", "addr:postcode": "10036", "addr:state": "NY", "addr:street": "West 48th Street", "amenity": "restaurant", "cuisine": "noodle", "level": "1", "name": "Yama Ramen"}}, {"type": "node", "id": 7172247185, "lat": 40.7580118, "lon": -73.9841151, "tags": {"amenity": "pub", "check_date": "2025-06-15", "cuisine": "burger;irish;american", "name": "Mc Carthy's", "theme": "irish"}}, {"type": "node", "id": 8669771128, "lat": 40.7572312, "lon": -73.9873203, "tags": {"addr:housenumber": "229", "addr:postcode": "10036", "addr:street": "West 43rd Street", "amenity": "restaurant", "branch": "Times Square", "cocktails": "yes", "cuisine": "sushi;japanese", "delivery": "Mo-Th, Su 10:30-22:15; Fr, Sa 10:30-23:00", "facebook": "HaruSushi", "happy_hours": "15:00-18:00", "instagram": "harusushinyc", "name": "Haru Sushi", "opening_hours": "Mo-Th, Su 11:00-22:00; Fr, Sa 11:00-23:00", "phone": "+1 212-398-9810", "reservation": "yes", "takeaway": "yes", "twitter": "HaruSushi", "website": "https://harusushi.com/location/newyork-timessquare"}}, {"type": "node", "id": 9049424120, "lat": 40.7623492, "lon": -73.9867012, "tags": {"amenity": "restaurant", "level": "0", "name": "The Blue Dog Cookhouse & Bar"}}, {"type": "node", "id": 9313457709, "lat": 40.7607466, "lon": -73.9847512, "tags": {"amenity": "restaurant", "name": "The Harrison Restaurant & Bar"}}, {"type": "node", "id": 9784340519, "lat": 40.7624715, "lon": -73.9811369, "tags": {"addr:housenumber": "152", "addr:street": "West 52nd Street", "amenity": "cafe", "name": "Partners Coffee"}}, {"type": "node", "id": 9784352417, "lat": 40.759942, "lon": -73.9816372, "tags": {"amenity": "cafe", "name": "Le Caffe Coffee"}}, {"type": "node", "id": 9815615205, "lat": 40.7604274, "lon": -73.9840645, "tags": {"addr:city": "New York", "addr:housenumber": "736", "addr:state": "NY", "addr:street": "7th Avenue", "amenity": "restaurant", "cuisine": "pizza", "name": "Famous Original Ray's Pizza"}}, {"type": "node", "id": 9853378374, "lat": 40.762535, "lon": -73.9857038, "tags": {"addr:city": "New York", "addr:housenumber": "840", "addr:state": "NY", "addr:street": "8th Avenue", "amenity": "restaurant", "cuisine": "pizza", "name": "Famous Amadeus"}}, {"type": "node", "id": 10261258830, "lat": 40.7596078, "lon": -73.9830636}, {"type": "node", "id": 10547810049, "lat": 40.7601354, "lon": -73.9832283, "tags": {"addr:city": "New York", "addr:housenumber": "152", "addr:postcode": "10019", "addr:state": "NY", "addr:street": "West 49th Street", "amenity": "restaurant", "branch": "Times Square", "cuisine": "japanese;ramen", "delivery": "yes", "name": "Ichiran", "opening_hours": "Mo-Th 12:00-21:00; Fr-Su 12:00-22:00", "outdoor_seating": "no", "payment:cash": "yes", "payment:credit_cards": "yes", "phone": "+1-646-964-4294", "takeaway": "yes", "website": "https://www.ichiranusa.com/location/times-square/"}}, {"type": "node", "id": 10559992345, "lat": 40.7597577, "lon": -73.9837192, "tags": {"addr:city": "New York", "addr:housenumber": "167", "addr:postcode": "10036", "addr:state": "NY", "addr:street": "West 48th Street", "amenity": "restaurant", "cuisine": "pizza", "delivery": "yes", "name": "Little Italy Pizza", "outdoor_seating": "sidewalk", "phone": "+1-646-360-2346", "takeaway": "yes"}}, {"type": "node", "id": 10794176923, "lat": 40.7600479, "lon": -73.9837966, "tags": {"alt_name": "Lagos Times Square", "amenity": "restaurant", "bar": "yes", "cocktails": "yes", "cuisine": "west_african", "drink:beer": "yes", "drink:liquor": "yes", "drink:wine": "yes", "name": "Lagos TSQ", "phone": "+1-212-281-0500", "website": "https://lagosnyc.com"}}, {"type": "node", "id": 11044225344, "lat": 40.7620418, "lon": -73.9860181, "tags": {"amenity": "restaurant", "check_date": "2024-03-07", "name": "Carnegie Diner & Cafe"}}, {"type": "node", "id": 11076895105, "lat": 40.7615722, "lon": -73.983214, "tags": {"addr:housenumber": "762", "addr:street": "7th Avenue", "amenity": "cafe", "name": "Gregory\u2019s coffee", "opening_hours": "Mo-Fr 06:00-20:30; Su,Sa 07:00-19:00"}}, {"type": "node", "id": 11079657105, "lat": 40.7575137, "lon": -73.9840845, "tags": {"addr:city": "New York", "addr:housenumber": "135", "addr:postcode": "10036", "addr:state": "NY", "addr:street": "West 45th Street", "amenity": "bar", "level": "54", "name": "Bar 54", "phone": "+1 646 364 1234", "website": "https://www.bar54nyc.com"}}, {"type": "node", "id": 11175531742, "lat": 40.7583068, "lon": -73.9808668, "tags": {"amenity": "pub", "cocktails": "yes", "cuisine": "pub;pizza", "drink:beer": "draught", "drink:liquor": "yes", "drink:wine": "yes", "name": "The Elgin", "opening_hours": "Mo 11:00-23:00; Tu-Fr 11:00-24:00; Sa 11:00-23:00; Su 14:00-22:00", "outdoor_seating": "sidewalk;street", "phone": "+1-212-221-2100", "website": "https://www.elginnyc.com"}}, {"type": "node", "id": 11335080026, "lat": 40.7603719, "lon": -73.9807662, "tags": {"amenity": "restaurant", "name": "Avra Rockefeller Center"}}, {"type": "node", "id": 11773867097, "lat": 40.7606821, "lon": -73.986622, "tags": {"amenity": "restaurant", "name": "PS Kitchen", "opening_hours": "Su-Tu 11:00-22:00; We-Sa 11:00-23:00"}}, {"type": "node", "id": 12207819344, "lat": 40.7609179, "lon": -73.9823212, "tags": {"addr:city": "New York", "addr:housenumber": "80", "addr:postcode": "10011", "addr:state": "NY", "addr:street": "Fifth Avenue", "amenity": "cafe", "cuisine": "singaporean;coffee;bubble_tea", "name": "Kopifellas", "opening_hours": "Mo-Fr 09:00-21:00;Sa-Su 10:30-20:30", "phone": "+1-917-485-9846", "website": "https://www.kopifellas.com.sg/usa/"}}, {"type": "node", "id": 12244426994, "lat": 40.7585073, "lon": -73.9858673, "tags": {"addr:city": "New York", "addr:housenumber": "1535", "addr:postcode": "11102", "addr:state": "NY", "addr:street": "Broadway", "addr:unit": "8th Floor", "air_conditioning": "yes", "amenity": "restaurant", "bar": "yes", "check_date": "2024-10-11", "level": "7", "name": "Revel & Rye", "phone": "+1-212-704-8833", "website": "https://www.revelandrye.com/"}}, {"type": "node", "id": 12246616257, "lat": 40.7585572, "lon": -73.9865632, "tags": {"amenity": "cafe", "brand": "Starbucks", "brand:wikidata": "Q37158", "cuisine": "coffee_shop", "name": "Starbucks", "official_name": "Starbucks Coffee", "takeaway": "yes"}}, {"type": "node", "id": 12286080701, "lat": 40.7620971, "lon": -73.984681, "tags": {"addr:postcode": "10019", "name": "Assured Guaranty", "office": "company", "website": "https://www.assuredguaranty.com"}}, {"type": "node", "id": 12646645001, "lat": 40.7601203, "lon": -73.9872499, "tags": {"addr:housenumber": "266", "addr:postcode": "10036", "addr:street": "West 47th Street", "amenity": "bar", "name": "The Woo Woo", "opening_hours": "Tu-Su 17:00-02:00", "website": "https://thewoowoonyc.com/"}}, {"type": "node", "id": 12818145480, "lat": 40.7596608, "lon": -73.9832831, "tags": {"addr:city": "New York", "addr:housenumber": "159", "addr:postcode": "10019", "addr:state": "NY", "addr:street": "West 48th Street", "amenity": "bar", "level": "34", "name": "RT60 Rooftop Bar & Lounge", "opening_hours": "Mo-Tu off; Th-Sa 17:00-02:00; Su,We 17:00-24:00", "outdoor_seating": "yes", "phone": "+1-212-970-1270", "website": "https://hotel.hardrock.com/new-york/rt60-rooftop-bar.aspx"}}, {"type": "node", "id": 12917521997, "lat": 40.7572479, "lon": -73.9835396, "tags": {"amenity": "pub", "check_date": "2025-06-15", "name": "Merrion Row"}}, {"type": "node", "id": 12917521999, "lat": 40.7575283, "lon": -73.98419, "tags": {"amenity": "cafe", "check_date": "2025-06-15", "cuisine": "coffee_shop", "name": "T45"}}, {"type": "node", "id": 12917522701, "lat": 40.757443, "lon": -73.9846875, "tags": {"amenity": "cafe", "brand": "Starbucks", "brand:wikidata": "Q37158", "check_date": "2025-06-15", "cuisine": "coffee_shop", "name": "Starbucks", "official_name": "Starbucks Coffee", "takeaway": "yes"}}, {"type": "node", "id": 12917522703, "lat": 40.7580768, "lon": -73.9842248, "tags": {"amenity": "restaurant", "check_date": "2025-06-15", "cuisine": "steak_house", "name": "Le Marais"}}, {"type": "node", "id": 12917522705, "lat": 40.7580046, "lon": -73.984058, "tags": {"amenity": "restaurant", "check_date": "2025-06-15", "cuisine": "steak_house;pasta", "name": "Prime Catch"}}, {"type": "node", "id": 12917522706, "lat": 40.757981, "lon": -73.9840072, "tags": {"amenity": "restaurant", "check_date": "2025-06-15", "cuisine": "chinese", "name": "Silky Kitchen", "opening_hours": "Mo-Fr 11:00-20:45"}}, {"type": "node", "id": 13067936661, "lat": 40.7624706, "lon": -73.983143, "tags": {"addr:housenumber": "1668", "addr:postcode": "10019", "addr:state": "NY", "addr:street": "West 52nd Street", "amenity": "cafe", "cuisine": "coffee_shop", "indoor_seating": "yes", "level": "0", "name": "inerro", "opening_hours": "Mo-Su 07:30-19:00", "takeaway": "yes", "website": "https://inerro.co/", "wheelchair": "limited"}}, {"type": "node", "id": 13270526606, "lat": 40.7593685, "lon": -73.9853155, "tags": {"amenity": "restaurant", "cuisine": "mexican", "name": "Dos Caminos"}}, {"type": "node", "id": 13304565268, "lat": 40.7599618, "lon": -73.9827619}, {"type": "node", "id": 13304565269, "lat": 40.7594857, "lon": -73.9831055}, {"type": "way", "id": 266149332, "nodes": [2717293895, 2717293899, 2717293910, 2717293911, 2717293907, 2717293906, 2717293895], "tags": {"addr:city": "New York", "addr:housenumber": "234", "addr:postcode": "10036", "addr:state": "NY", "addr:street": "West 44th Street", "amenity": "restaurant", "building": "yes", "contact:facebook": "SardisRestaurant", "contact:twitter": "SardisNYC", "fax": "+1 212-302-0865", "height": "41.1", "name": "Sardi's", "nycdoitt:bin": "1024707", "opening_hours": "Tu,Th,Fr 12:00-22:45; We,Sa 12:00-23:00", "phone": "+1 212-221-8440", "reservation": "yes", "start_date": "1927", "website": "https://www.sardis.com/", "wikidata": "Q7423790", "wikipedia": "en:Sardi's"}}, {"type": "way", "id": 266170540, "nodes": [2717545066, 1753098052, 2717545159, 2717545281, 2717545262, 2717545216, 2717545203, 2717545193, 2717545182, 2717545066], "tags": {"addr:city": "New York", "addr:housenumber": "121", "addr:postcode": "10036", "addr:state": "NY", "addr:street": "West 45th Street", "amenity": "pub", "building": "yes", "building:colour": "#2C2428", "building:levels": "3", "check_date": "2024-10-10", "height": "12.5", "name": "Connolly's", "nycdoitt:bin": "1022638", "official_name": "Connolly's Pub & Restaurant", "roof:material": "concrete", "roof:shape": "flat", "website": "https://www.connollyspubandrestaurant.com/"}}, {"type": "way", "id": 266170542, "nodes": [2717545825, 2717545835, 2717545846, 2717545853, 2717545923, 2717545934, 1762432574, 2717545914, 2717545825], "tags": {"addr:city": "New York", "addr:housenumber": "146", "addr:postcode": "10036", "addr:state": "NY", "addr:street": "West 47th Street", "amenity": "restaurant", "building": "yes", "cuisine": "mediterranean", "height": "13.1", "name": "Dervish", "nycdoitt:bin": "1022670", "website": "https://www.dervishrestaurant.com/"}}, {"type": "way", "id": 266170759, "nodes": [2717545409, 2717545413, 2717545599, 1753134755, 2717545585, 2717545409], "tags": {"addr:city": "New York", "addr:housenumber": "134", "addr:postcode": "10036", "addr:state": "NY", "addr:street": "West 46th Street", "amenity": "restaurant", "building": "yes", "cocktails": "yes", "cuisine": "mexican", "height": "16.0", "name": "Amor Loco", "nycdoitt:bin": "1022646"}}, {"type": "way", "id": 266170760, "nodes": [2717545159, 1753098061, 2717545186, 2717545189, 2717545295, 2717545281, 2717545159], "tags": {"addr:city": "New York", "addr:housenumber": "123", "addr:postcode": "10036", "addr:state": "NY", "addr:street": "West 45th Street", "amenity": "pub", "building": "yes", "building:colour": "#CDC7AF", "building:levels": "5", "check_date": "2024-10-10", "height": "16.6", "name": "Perfect Pint", "nycdoitt:bin": "1022657", "official_name": "The Perfect Pint", "roof:material": "concrete", "roof:shape": "flat", "website": "https://www.theperfectpintnyc.com/"}}, {"type": "way", "id": 458511171, "nodes": [2717546466, 2717546460, 2717546457, 2717546406, 2717546409, 2717546378, 2717546381, 2717546365, 4545006872, 2717546353, 2717546387, 1593328953, 1593328960, 4545006873, 4545006874, 2717546466], "tags": {"access": "yes", "highway": "pedestrian", "leisure": "park", "name": "745 Plaza"}}, {"type": "way", "id": 1317270172, "nodes": [2717546319, 13304565268, 530697969, 530697968, 13304565269, 2717546150, 10261258830, 2717546205, 2717546209, 2717546319], "tags": {"area": "yes", "highway": "pedestrian", "leisure": "park", "name": "McGraw-Hill Park", "surface": "concrete"}}]}