{"version": 0.6, "generator": "Overpass API 0.7.62.8 e802775f", "osm3s": {"timestamp_osm_base": "2025-12-01T17:00:45Z", "copyright": "The data included in this document is from www.openstreetmap.org. The data is made available under ODbL."}, "elements": [{"type": "node", "id": 357624203, "lat": 40.682533, "lon": -73.9574026}, {"type": "node", "id": 2550140503, "lat": 40.6815162, "lon": -73.953374, "tags": {"addr:housenumber": "1223", "addr:postcode": "11216", "addr:street": "Bedford Avenue", "amenity": "pub", "cuisine": "american;caribbean", "drink:beer": "yes", "drink:wine": "yes", "name": "Tilly's", "outdoor_seating": "street", "website": "https://tillysbklyn.com"}}, {"type": "node", "id": 2550149664, "lat": 40.6802988, "lon": -73.9535374, "tags": {"addr:housenumber": "1272", "addr:postcode": "11216", "addr:street": "Bedford Avenue", "fax": "+1-718-398-2150", "name": "Adio Accounting", "office": "accountant", "phone": "+1-718-483-8499"}}, {"type": "node", "id": 2550150500, "lat": 40.6812351, "lon": -73.9568637, "tags": {"addr:housenumber": "1100", "addr:postcode": "11238", "addr:street": "Fulton Street", "alt_name": "Brooklyn Prospect Clinton Hill Middle School", "amenity": "school", "name": "Clinton Hill Middle School", "operator": "Brooklyn Prospect Charter School", "phone": "+1-718-783-1570", "website": "https://www.brooklynprospect.org/our-schools/clinton-hill-middle/"}}, {"type": "node", "id": 2550150587, "lat": 40.6811476, "lon": -73.9563962, "tags": {"amenity": "restaurant", "bar": "yes", "name": "/ND/GO"}}, {"type": "node", "id": 2550150589, "lat": 40.6813832, "lon": -73.9575678, "tags": {"alt_name": "Heal Haus Cafe", "amenity": "cafe", "drink:coffee": "yes", "drink:espresso": "yes", "name": "HealHaus Cafe", "opening_hours": "Mo-Fr 07:30-16:00; Sa-Su 08:00-16:00", "phone": "+1-347-413-7774", "website": "https://www.healhaus.com/cafe/"}}, {"type": "node", "id": 2550150601, "lat": 40.6814303, "lon": -73.9592554}, {"type": "node", "id": 2550150716, "lat": 40.6818691, "lon": -73.959746}, {"type": "node", "id": 2565131160, "lat": 40.6827469, "lon": -73.9536232, "tags": {"addr:housenumber": "1185", "addr:postcode": "11216", "addr:street": "Bedford Avenue", "amenity": "restaurant", "cuisine": "thai", "drink:beer": "yes", "indoor_seating": "yes", "name": "Beds Thai", "opening_hours": "Mo-Su 11:00-22:15", "outdoor_seating": "yes", "phone": "+1-347-985-1199", "website": "https://orderbedsthai.com"}}, {"type": "node", "id": 2565136713, "lat": 40.682011, "lon": -73.9584752, "tags": {"addr:housenumber": "549", "addr:postcode": "11238", "addr:street": "Classon Avenue", "amenity": "bar", "cocktails": "yes", "cuisine": "chicken", "drink:beer": "draught", "drink:liquor": "yes", "drink:wine": "yes", "name": "The Fly", "opening_hours": "Mo-Th 17:00-01:00; Fr-Sa 17:00-02:00; Su 17:00-01:00", "opening_hours:kitchen": "Mo-Th 17:00-23:00; Fr-Sa 17:00-24:00; Su 17:00-23:00", "outdoor_seating": "sidewalk", "website": "https://theflybrooklyn.com"}}, {"type": "node", "id": 2565140917, "lat": 40.6815863, "lon": -73.9572059, "tags": {"addr:housenumber": "1109", "addr:postcode": "11238", "addr:street": "Fulton Street", "amenity": "childcare", "office": "coworking", "phone": "+1-718-484-7620", "website": "https://lolatots.com"}}, {"type": "node", "id": 2565141933, "lat": 40.6823401, "lon": -73.959558}, {"type": "node", "id": 2565141958, "lat": 40.6823699, "lon": -73.9592957}, {"type": "node", "id": 2565141973, "lat": 40.6823798, "lon": -73.9592084}, {"type": "node", "id": 2565142036, "lat": 40.6825415, "lon": -73.9574216}, {"type": "node", "id": 2565142039, "lat": 40.6825509, "lon": -73.9595993}, {"type": "node", "id": 2565142041, "lat": 40.6825538, "lon": -73.9595735}, {"type": "node", "id": 2565142052, "lat": 40.6825685, "lon": -73.9594439}, {"type": "node", "id": 2565142061, "lat": 40.6825752, "lon": -73.9570468}, {"type": "node", "id": 2565142065, "lat": 40.6825874, "lon": -73.9570358}, {"type": "node", "id": 2565142067, "lat": 40.6825906, "lon": -73.9592497}, {"type": "node", "id": 2565142105, "lat": 40.6826288, "lon": -73.9570443}, {"type": "node", "id": 2565142107, "lat": 40.6826296, "lon": -73.9570373}, {"type": "node", "id": 2565142263, "lat": 40.6827962, "lon": -73.9574738}, {"type": "node", "id": 2565142266, "lat": 40.6828047, "lon": -73.9574023}, {"type": "node", "id": 2565142277, "lat": 40.6828222, "lon": -73.9572548}, {"type": "node", "id": 2565142298, "lat": 40.6828428, "lon": -73.957081}, {"type": "node", "id": 2701939014, "lat": 40.6816464, "lon": -73.9586883}, {"type": "node", "id": 2701939016, "lat": 40.6812687, "lon": -73.9586274}, {"type": "node", "id": 2701939018, "lat": 40.681398, "lon": -73.9592672}, {"type": "node", "id": 2701939020, "lat": 40.681473, "lon": -73.9592398}, {"type": "node", "id": 2701939022, "lat": 40.6815994, "lon": -73.9598447}, {"type": "node", "id": 3808851732, "lat": 40.6814612, "lon": -73.9558777, "tags": {"amenity": "restaurant", "cocktails": "yes", "cuisine": "american", "drink:beer": "draught", "drink:liquor": "yes", "drink:wine": "yes", "name": "Hart's", "opening_hours": "Tu-Sa 17:30-22:30", "outdoor_seating": "street", "phone": "+1-718-636-6228", "website": "https://www.hartsbrooklyn.com"}}, {"type": "node", "id": 3808872720, "lat": 40.6814746, "lon": -73.9555748, "tags": {"addr:housenumber": "505", "addr:postcode": "11216", "addr:street": "Franklin Avenue", "amenity": "cafe", "cuisine": "mexican", "drink:beer": "yes", "drink:coffee": "yes", "drink:espresso": "yes", "drink:wine": "yes", "name": "Cafe Calaca", "outdoor_seating": "sidewalk"}}, {"type": "node", "id": 3808872722, "lat": 40.6813398, "lon": -73.9573615, "tags": {"amenity": "bar", "cocktails": "yes", "drink:beer": "draught", "drink:liquor": "yes", "drink:wine": "yes", "indoor_seating": "yes", "name": "Doris", "opening_hours": "Th-Su 15:00-20:00", "outdoor_seating": "no", "phone": "+1-347-240-3350", "website": "https://dorisbedstuy.com"}}, {"type": "node", "id": 4035635915, "lat": 40.6815942, "lon": -73.9559147, "tags": {"addr:city": "Brooklyn", "addr:housenumber": "502", "addr:place": "Franklin Avenue", "addr:postcode": "11238", "amenity": "bar", "name": "Glorietta Baldy", "opening_hours": "Mo-Fr 16:00-04:00, Sa-Su 14:00-04:00", "website": "http://www.gloriettabaldy.com/"}}, {"type": "node", "id": 4774165528, "lat": 40.6831765, "lon": -73.9536979, "tags": {"addr:housenumber": "1177", "addr:postcode": "11216", "addr:street": "Bedford Avenue", "amenity": "bar", "name": "Breuklyn Tequila & Tacos"}}, {"type": "node", "id": 5918133512, "lat": 40.6794468, "lon": -73.9575279, "tags": {"addr:city": "Brooklyn", "addr:housenumber": "1072", "addr:postcode": "11238", "addr:state": "NY", "addr:street": "Atlantic Avenue", "contact:facebook": "https://www.facebook.com/BMCleanupServices/", "name": "B&M Cleanup Services, Inc.", "office": "waste_disposal", "opening_hours": "Mo-Su 06:00-18:00", "phone": "+1-718-418-3366", "website": "https://www.bmcleanup.com/"}}, {"type": "node", "id": 6188784951, "lat": 40.6815369, "lon": -73.9558972, "tags": {"amenity": "cafe", "cocktails": "yes", "cuisine": "coffee_shop;sandwich;mediterranean", "drink:coffee": "yes", "drink:espresso": "yes", "drink:wine": "yes", "name": "Golda", "opening_hours": "Mo-Th 07:00-16:00; Fr-Su 08:00-18:00", "outdoor_seating": "sidewalk", "phone": "+1-718-484-7065", "website": "https://www.goldakitchen.com"}}, {"type": "node", "id": 6402840370, "lat": 40.6785668, "lon": -73.9585722, "tags": {"addr:city": "Brooklyn", "addr:housenumber": "641", "addr:postcode": "11238", "addr:state": "NY", "addr:street": "Classon Avenue", "amenity": "bar", "contact:facebook": "https://www.facebook.com/pg/friendsandloversbk", "contact:instagram": "@friendsandloversbk", "email": "music@fnlbk.com", "name": "Friends and Lovers", "opening_hours": "We 18:00-24:00; Th 18:00-02:00; Fr-Sa 18:00-04:00", "payment:cash": "yes", "payment:credit_cards": "yes", "payment:debit_cards": "yes", "phone": "+1-917-979-3060", "website": "https://www.fnlbk.com"}}, {"type": "node", "id": 6682030674, "lat": 40.6812781, "lon": -73.953327, "tags": {"fax": "+1-718-398-2614", "name": "Franklin Income Tax", "office": "tax_advisor", "phone": "+1-718-398-2613"}}, {"type": "node", "id": 6757143486, "lat": 40.6829912, "lon": -73.953657, "tags": {"amenity": "cafe", "cuisine": "coffee_shop;diner", "drink:coffee": "yes", "drink:espresso": "yes", "name": "Martha's Pastries & Cafe", "opening_hours": "Mo-Fr 07:00-18:00; Sa-Su 07:00-20:00"}}, {"type": "node", "id": 6833242353, "lat": 40.6818575, "lon": -73.9584484, "tags": {"addr:housenumber": "1081", "addr:postcode": "11238", "addr:street": "Fulton Street", "amenity": "restaurant", "cuisine": "mexican", "indoor_seating": "yes", "name": "Bushwick Taco Company", "opening_hours": "Mo-Su 11:00-22:00", "outdoor_seating": "yes", "toilets": "yes"}}, {"type": "node", "id": 8220719808, "lat": 40.6806855, "lon": -73.9526184, "tags": {"amenity": "restaurant", "cuisine": "indian", "indoor_seating": "yes", "name": "Diwali Indian Cuisine", "outdoor_seating": "no"}}, {"type": "node", "id": 8706963619, "lat": 40.68063, "lon": -73.9539592, "tags": {"addr:housenumber": "1178", "addr:postcode": "11216", "addr:street": "Fulton Street", "amenity": "restaurant", "cuisine": "middle_eastern;american", "diet:halal": "yes", "name": "Fulton Food Court", "phone": "+1-718-789-0546"}}, {"type": "node", "id": 9017912441, "lat": 40.6815217, "lon": -73.9555916, "tags": {"name": "Liberty Income Tax", "office": "tax_advisor", "phone": "+1-718-783-7777"}}, {"type": "node", "id": 9440738952, "lat": 40.6779543, "lon": -73.9579265, "tags": {"addr:city": "Brooklyn", "addr:housenumber": "972", "addr:postcode": "11238", "addr:state": "NY", "addr:street": "Dean Street", "disused:website": "http://www.jeffsexpress.com", "name": "Jeff's Express", "office": "moving_company", "phone": "+1-718-622-0263"}}, {"type": "node", "id": 9534888713, "lat": 40.6804315, "lon": -73.9526063, "tags": {"addr:housenumber": "1198", "addr:postcode": "11238", "addr:street": "Fulton Street", "amenity": "bar", "cocktails": "yes", "cuisine": "mexican;eclectic", "drink:beer": "yes", "drink:liquor": "yes", "drink:wine": "yes", "name": "Basquiat's Bottle", "opening_hours": "Tu-Su 17:00-24:00+"}}, {"type": "node", "id": 10594636152, "lat": 40.6815735, "lon": -73.9571317, "tags": {"amenity": "restaurant", "cuisine": "nigerian", "name": "Buka", "opening_hours": "Mo 16:00-23:00; Tu-Th 12:00-23:00; Fr-Sa 12:00-24:00; Su 12:00-23:00", "phone": "+1-347-763-0619", "website": "https://www.bukanewyork.com"}}, {"type": "node", "id": 10642744091, "lat": 40.6815777, "lon": -73.9533915, "tags": {"alt_name": "Seed Brklyn Greenhouse Caf\u00e9", "amenity": "cafe", "drink:espresso": "yes", "florist": "yes", "name": "Seed Brklyn Green House", "opening_hours": "Mo-Su 07:00-19:00", "shop": "gift", "website": "https://seedbrklyn.com"}}, {"type": "node", "id": 10998186059, "lat": 40.6807243, "lon": -73.9543755, "tags": {"fax": "+1-347-221-0568", "name": "Hafiz Travel", "office": "travel_agent", "phone": "+1-347-221-0567"}}, {"type": "node", "id": 10998186063, "lat": 40.6807103, "lon": -73.9543042, "tags": {"amenity": "restaurant", "diet:halal": "yes", "name": "Z Halal Restaurant"}}, {"type": "node", "id": 11762070421, "lat": 40.6790481, "lon": -73.959141, "tags": {"fax": "+1-718-243-9463", "name": "Engberg Design & Development", "office": "company", "phone": "+1-718-875-1685", "website": "http://www.engberg-design.com"}}, {"type": "node", "id": 12643728897, "lat": 40.6815005, "lon": -73.9533859, "tags": {"addr:housenumber": "1223", "addr:street": "Bedford Avenue", "amenity": "cafe", "check_date": "2025-03-07", "cuisine": "coffee_shop", "internet_access": "wlan", "internet_access:fee": "customers", "name": "Padmore\u2019s"}}, {"type": "node", "id": 13042969063, "lat": 40.6811275, "lon": -73.956328, "tags": {"name": "Liberty Tax", "office": "tax_advisor", "phone": "+1-718-783-7777"}}, {"type": "way", "id": 249986033, "nodes": [2565141933, 2565142039, 2565142041, 2565142052, 2565142067, 2565141973, 2565141958, 2565141933], "tags": {"addr:housenumber": "87", "addr:postcode": "11238", "addr:street": "Irving Place", "amenity": "school", "building": "yes", "height": "13.8", "name": "The Co-op School", "nycdoitt:bin": "3057263"}}, {"type": "way", "id": 249986055, "nodes": [2565142036, 2565142263, 2565142266, 2565142277, 2565142298, 2565142107, 2565142105, 2565142065, 2565142061, 357624203, 2565142036], "tags": {"addr:housenumber": "11", "addr:postcode": "11238", "addr:street": "Jefferson Avenue", "alt_name": "Claver Castle", "amenity": "school", "building": "yes", "contact:email": "info@brooklynwaldorf.org", "ele": "21", "fax": "+1-718-783-7209", "gnis:feature_id": "2097639", "height": "19.0", "name": "The Brooklyn Waldorf School", "nycdoitt:bin": "3057308", "old_name": "Saint Peter Claver Institute", "phone": "+1-718-783-3270", "wikidata": "Q4974918"}}, {"type": "way", "id": 264529159, "nodes": [2550150716, 2701939014, 2701939016, 2701939018, 2550150601, 2701939020, 2701939022, 2550150716], "tags": {"leisure": "park", "name": "Crispus Attucks Playground", "website": "https://www.nycgovparks.org/parks/crispus-attucks-playground", "wikidata": "Q34820932"}}]}