{"version": 0.6, "generator": "Overpass API 0.7.62.8 e802775f", "osm3s": {"timestamp_osm_base": "2025-12-01T16:53:29Z", "copyright": "The data included in this document is from www.openstreetmap.org. The data is made available under ODbL."}, "elements": [{"type": "node", "id": 357579623, "lat": 40.6022823, "lon": -73.9700927, "tags": {"addr:city": "Brooklyn", "addr:housenumber": "415", "addr:postcode": "11223", "addr:state": "NY", "addr:street": "Avenue S", "amenity": "school", "ele": "7", "gnis:feature_id": "961529", "name": "Public School 215"}}, {"type": "node", "id": 4680765108, "lat": 40.5997714, "lon": -73.972245}, {"type": "node", "id": 4680765109, "lat": 40.599849, "lon": -73.9715444}, {"type": "node", "id": 5256215930, "lat": 40.5997849, "lon": -73.9726365}, {"type": "node", "id": 5256215932, "lat": 40.6014875, "lon": -73.9718319}, {"type": "node", "id": 5256215933, "lat": 40.6014586, "lon": -73.9724065}, {"type": "node", "id": 5373644722, "lat": 40.604355, "lon": -73.9719259, "tags": {"addr:city": "Brooklyn", "addr:housenumber": "481", "addr:postcode": "11223", "addr:state": "NY", "addr:street": "Kings Highway", "air_conditioning": "yes", "amenity": "cafe", "branch": "481 Kings Highway", "brand": "Starbucks", "brand:wikidata": "Q37158", "check_date": "2024-06-16", "cuisine": "coffee_shop", "delivery": "yes", "drive_through": "no", "name": "Starbucks", "official_name": "Starbucks Coffee", "opening_hours": "Mo-Sa 08:00-19:00", "outdoor_seating": "no", "payment:cash": "yes", "payment:contactless": "yes", "payment:credit_cards": "yes", "smoking": "no", "takeaway": "yes", "website": "https://www.starbucks.com/store-locator/store/1043768/481-kings-hwy-481-kings-hwy-brooklyn-ny-112231835-us", "wheelchair": "yes"}}, {"type": "node", "id": 10555644980, "lat": 40.6010891, "lon": -73.9714191, "tags": {"entrance": "yes"}}, {"type": "node", "id": 10555644981, "lat": 40.6014413, "lon": -73.9721583}, {"type": "node", "id": 10555644982, "lat": 40.6010019, "lon": -73.9717415}, {"type": "node", "id": 10555644983, "lat": 40.6010397, "lon": -73.9714097}, {"type": "node", "id": 10555644984, "lat": 40.6010695, "lon": -73.9717549}, {"type": "node", "id": 10555644985, "lat": 40.6011078, "lon": -73.9714226}, {"type": "way", "id": 543732195, "nodes": [5256215930, 4680765108, 4680765109, 10555644982, 10555644983, 10555644980, 10555644985, 10555644984, 5256215932, 10555644981, 5256215933, 5256215930], "tags": {"ele": "6", "gnis:feature_id": "2129332", "leisure": "park", "name": "McDonald Playground", "operator": "New York City Department of Parks and Recreation", "operator:short": "NYC Parks", "operator:type": "public", "operator:wikidata": "Q1894232", "website": "https://www.nycgovparks.org/parks/mcdonald-playground/", "wikidata": "Q49523498"}}]}