{"version": 0.6, "generator": "Overpass API 0.7.62.8 e802775f", "osm3s": {"timestamp_osm_base": "2025-12-01T16:31:02Z", "copyright": "The data included in this document is from www.openstreetmap.org. The data is made available under ODbL."}, "elements": [{"type": "node", "id": 2545013279, "lat": 40.6768839, "lon": -73.8700818, "tags": {"alt_name": "Apian Tutorial", "name": "FlexPrep Tutorial", "office": "tutoring", "phone": "+1-929-331-8881", "website": "https://www.apiantutorial.com"}}, {"type": "node", "id": 2545013395, "lat": 40.6757936, "lon": -73.8699807}, {"type": "node", "id": 2545013400, "lat": 40.6758965, "lon": -73.8692785}, {"type": "node", "id": 2545013445, "lat": 40.6764332, "lon": -73.8694151}, {"type": "node", "id": 2545013451, "lat": 40.6762592, "lon": -73.8693708}, {"type": "node", "id": 2545013462, "lat": 40.6763344, "lon": -73.8700895}, {"type": "node", "id": 2545013475, "lat": 40.6763616, "lon": -73.8699037}, {"type": "node", "id": 4486134743, "lat": 40.675845, "lon": -73.8696296, "tags": {"entrance": "main"}}, {"type": "node", "id": 4486134745, "lat": 40.6763733, "lon": -73.8698237}, {"type": "node", "id": 5209288222, "lat": 40.673022, "lon": -73.8711691, "tags": {"amenity": "restaurant", "name": "Chinese Food"}}, {"type": "node", "id": 5209289478, "lat": 40.6743565, "lon": -73.8708472, "tags": {"addr:housenumber": "1039", "addr:street": "Belmont Avenue", "amenity": "restaurant", "cuisine": "caribbean", "name": "Foodies Restaurant"}}, {"type": "node", "id": 5209289787, "lat": 40.67315, "lon": -73.8701897, "tags": {"addr:housenumber": "1293", "addr:street": "Sutter Avenue", "amenity": "restaurant", "name": "Jamaican Jerk House"}}, {"type": "node", "id": 8721915705, "lat": 40.6763303, "lon": -73.8701173}, {"type": "way", "id": 1232208880, "nodes": [2545013400, 2545013451, 2545013445, 4486134745, 2545013475, 2545013462, 8721915705, 2545013395, 4486134743, 2545013400], "tags": {"addr:housenumber": "2781", "addr:postcode": "11208", "addr:street": "Pitkin Avenue", "amenity": "school", "fax": "+1-718-277-4828", "name": "P.S. 159 Isaac Pitkin", "nycdoe:ref": "K159", "operator": "New York City Department of Education", "operator:short": "NYC Public Schools", "operator:type": "public", "operator:wikidata": "Q408230", "phone": "+1-718-277-4828", "website": "https://www.schools.nyc.gov/schools/K159"}}]}